,name,floorSize,price,lat,lng
0," 6036 Moonstone Peak Dr Bakersfield, CA 93313 ","1,898 sqft","$238,956",35.275806,-119.06989
1," 888 W E St #1803 San Diego, CA 92101 ","1,276 sqft","$1,449,900",32.71504,-117.170715
2," 5535 Ackerfield Ave #26 Long Beach, CA 90805 ","1,069 sqft","$369,000",33.857777,-118.163666
3," 1919 W Coronet Ave #161 Anaheim, CA 92801 ","1,440 sqft","$150,000",33.852856,-117.948494
4," 11186 Berryknoll St San Diego, CA 92126 ","1,525 sqft","$679,000",32.92506,-117.15581
5," 445 Island Ave #410 San Diego, CA 92101 ",807 sqft,"$399,000",32.71014,-117.16057
6," 200 Harbor Dr #3001 San Diego, CA 92101 ","1,572 sqft","$1,230,000",32.708916,-117.16249
7," 2046 Cedar Ave #A Long Beach, CA 90806 ","5,730 sqft","$1,150,000",33.7944,-118.1945
8," 327 Salta Verde Point Long Beach, CA 90803 ","2,560 sqft","$1,760,285",33.76312,-118.12057
9," 2107 Ellen Way Bakersfield, CA 93304 ","1,040 sqft","$137,700",35.344307,-119.026665
10," Via Marisol Lomitas Dr Los Angeles, CA 90042 ","42,288 sqft","$325,000",34.1142,-118.1917
11," 11693 Daisy Ct Mira Loma, CA 91752 ","3,077 sqft","$601,990",34.00219,-117.53883
12," 430 Navaro Pl #121 San Jose, CA 95134 ",948 sqft,"$690,000",37.401062,-121.92329
13," Envoy Plan in Locan Pointe by Century Communities Fresno, CA 93737 ","2,532 sqft","$341,990+",36.779163,-119.65544
14," Plan 2 Option 1 in Encore at Playa Vista by Taylor Morrison Playa Vista, CA 90094 ","3,627 sqft","$3,100,000+",33.976948,-118.413734
15," 499 33rd Ave #308 San Francisco, CA 94121 ","1,743 sqft","$1,310,000",37.779987,-122.49368
16," 729 Francis St Bakersfield, CA 93308 ",400 sqft,"$70,000",35.41995,-119.03669
17," 533 S Saint Andrews Pl #305 Los Angeles, CA 90020 ",715 sqft,"$399,000",34.064384,-118.312065
18," 1022 W 18th St Santa Ana, CA 92706 ","1,640 sqft","$759,900",33.760746,-117.87952
19," 3062 Via Papeete San Diego, CA 92154 ","1,258 sqft","$470,000",32.58207,-117.066124
20," 51 Tesoro Irvine, CA 92618 ","2,459 sqft","$1,500,000",33.64323,-117.75884
21," 191 E Escalon Ave Fresno, CA 93710 ","1,535 sqft","$265,000",36.826286,-119.78604
22," 12720 Burbank Blvd #307 Sherman Vlg, CA 91607 ",785 sqft,"$379,950",34.17182,-118.41066
23," 100 Atlantic Ave #1115 Long Beach, CA 90802 ",490 sqft,"$299,000",33.768402,-118.184616
24," 1740 W 62nd St Los Angeles, CA 90047 ","2,590 sqft","$639,900",33.983,-118.30819
25," 2760 19th Ave #32 San Francisco, CA 94132 ","1,240 sqft","$799,000",37.736015,-122.47405
26," 1120 Los Palos St Los Angeles, CA 90023 ","2,678 sqft","$934,888",34.01975,-118.19456
27," 3522 Poe St San Diego, CA 92106 ",764 sqft,"$669,000",32.73438,-117.22842
28," 3005 Manor St Bakersfield, CA 93308 ","2,274 sqft","$219,898",35.433464,-119.012726
29," 5731 Etiwanda Ave #4 Tarzana, CA 91356 ","1,877 sqft","$679,900",34.175816,-118.53096
30," Residence 3 Plan in Trend at Novel Park by William Lyon Homes Irvine, CA 92618 ","2,287 sqft","$1,028,990+",33.66524,-117.74907
31," 160 Guava Ave Chula Vista, CA 91910 ","2,183 sqft","$629,000",32.64466,-117.087135
32," 3147 Dona Emilia Dr Studio City, CA 91604 ","4,798 sqft","$3,515,000",34.128056,-118.37627
33," 1611 N Gardner St Los Angeles, CA 90046 ","1,654 sqft","$1,749,000",34.100246,-118.35316
34," 14210 Fox Run Row San Diego, CA 92130 ","2,555 sqft","$1,111,111",32.977474,-117.20733
35," 309 Tall Oak Irvine, CA 92603 ","2,000 sqft","$950,000",33.64779,-117.77144
36," 12026 Hoffman St #203 Studio City, CA 91604 ","1,670 sqft","$889,000",34.144844,-118.39373
37," 12506 Woodbine St Los Angeles, CA 90066 ","3,698 sqft","$2,899,000",34.011364,-118.440994
38," 11849 Spruce Run Dr #A San Diego, CA 92131 ",974 sqft,"$535,000",32.93386,-117.08894
39," 52 Innes Ct. #403 Plan in The San Francisco Shipyard : Monarch by Lennar San Francisco, CA 94124 ","1,409 sqft","$1,275,000+",37.7271,-122.368
40," 746 Andover St San Francisco, CA 94110 ","2,025 sqft","$2,295,000",37.73403,-122.41713
41," 7260 Hillside Ave #304 Los Angeles, CA 90046 ",664 sqft,"$396,990",34.10431,-118.3483
42," 3133 Oakbridge Dr #3133 San Jose, CA 95121 ","1,440 sqft","$265,000",37.30652,-121.81668
43," 108 Morrow Ct San Jose, CA 95139 ","1,386 sqft","$709,900",37.227062,-121.77206
44," 2922 Halldale Ave Los Angeles, CA 90018 ","2,162 sqft","$949,000",34.028442,-118.3026
45," 4034 Nobel Dr #201 San Diego, CA 92122 ","1,212 sqft","$577,500",32.868248,-117.21941
46," 431 W Gage Ave Los Angeles, CA 90003 ","1,400 sqft","$439,900",33.982643,-118.28152
48," 868 E Buckhill Rd Fresno, CA 93720 ","2,145 sqft","$365,000",36.87475,-119.769684
49," 377 Palm Ave #304 Oakland, CA 94610 ",591 sqft,"$395,000",37.81278,-122.253624
50," 530 S Hewitt St #218 Los Angeles, CA 90013 ","1,030 sqft","$675,000",34.041225,-118.23462
51," 1233 Hyatt Ave Wilmington, CA 90744 ","2,650 sqft","$650,000",33.787876,-118.254974
52," 3288 Cathedral Cir Stockton, CA 95212 ","1,852 sqft","$368,500",38.03339,-121.2722
53," 997 Lakeshire Ct San Jose, CA 95126 ","1,350 sqft","$820,000",37.307377,-121.91905
54," 1049 Felspar St #7 San Diego, CA 92109 ",599 sqft,"$457,000",32.79827,-117.25096
55," 1047 E 1st St #4 Long Beach, CA 90802 ",563 sqft,"$285,000",33.767403,-118.17959
56," 2211 Fazeli Ct Campbell, CA 95008 ","1,359 sqft","$814,950",37.270103,-121.93797
57," 3520 Cherokee Ave San Diego, CA 92104 ",704 sqft,"$399,000",32.7431,-117.11478
58," 3340 Del Sol Blvd #217 San Diego, CA 92154 ","1,296 sqft","$68,000",32.575195,-117.06153
59," 351 Buena Vista Ave E #203E San Francisco, CA 94117 ","1,341 sqft","$1,550,000",37.766884,-122.439606
60," 8400 Pershing Dr Playa Del Rey, CA 90293 ","10,552 sqft","$4,500,000",33.957317,-118.442825
61," 564 N Virgil Ave Los Angeles, CA 90004 ","3,074 sqft","$1,560,000",34.0813,-118.286446
62," 9927 Paseo Montril San Diego, CA 92129 ","1,341 sqft","$525,000",32.950188,-117.1093
63," 1220 S Macduff St Anaheim, CA 92804 ","1,412 sqft","$499,700",33.817142,-117.98158
64," 13700 Marina Pointe Dr #1402 Venice, CA 90292 ","1,630 sqft","$2,410,000",33.98457,-118.44539
65," 21126 Merridy St Chatsworth, CA 91311 ","2,334 sqft","$621,340",34.252,-118.59391
66," 4910 Paramount Dr San Diego, CA 92123 ","1,695 sqft","$585,000",32.827316,-117.13587
67," 5922 Firefly Pl Playa Vista, CA 90094 ","4,288 sqft","$3,998,888",33.976147,-118.41455
68," 944 W Myrtle St Santa Ana, CA 92703 ","1,430 sqft","$527,000",33.74152,-117.87827
69," 5893 Embee Dr San Jose, CA 95123 ","2,008 sqft","$799,929",37.244114,-121.813805
70," 1640 Sunnyside Ter San Pedro, CA 90732 ","2,292 sqft","$1,155,000",33.729004,-118.307884
71," 1378 Cristina Ave San Jose, CA 95125 ","1,093 sqft","$1,148,888",37.307068,-121.892494
72," 6078 Calle De Amor San Jose, CA 95124 ","2,235 sqft","$998,000",37.22801,-121.90608
73," 6149 Oasis Ave Bakersfield, CA 93307 ","2,452 sqft","$375,000",35.318832,-118.935684
74," 2405 32nd Ave San Francisco, CA 94116 ","4,000 sqft","$2,500,000",37.742004,-122.48992
75," 758 Hartford Ave Los Angeles, CA 90017 ","2,352 sqft","$1,595,000",34.050594,-118.268135
76," 11813 Runnymede St #31 North Hollywood, CA 91605 ",700 sqft,"$193,000",34.206234,-118.39103
77," 10833 Jurupa Rd Mira Loma, CA 91752 ","1,097 sqft","$285,039",33.992943,-117.520485
78," 502 Anita St #14 Chula Vista, CA 91911 ",960 sqft,"$59,900",32.599598,-117.07331
79," 1611 S Wooster St Los Angeles, CA 90035 ","7,000 sqft","$3,595,000",34.050007,-118.383575
80," 7501 Shirley Ave Reseda, CA 91335 ","1,180 sqft","$899,999",34.2066,-118.55849
81," 2427 Mission Rd Stockton, CA 95204 ","1,331 sqft","$288,000",37.967873,-121.323784
82," 10423 Tuxford St La Tuna Canyon, CA 91352 ","2,146 sqft","$1,265,000",34.235794,-118.358284
83," 6250 Hollywood Blvd #14A Los Angeles, CA 90028 ","3,270 sqft","$3,600,000",34.10063,-118.32587
84," 20615 W Chestnut Cir Porter Ranch, CA 91326 ","2,168 sqft","$979,995",34.2751,-118.573
85," 135 S Hampton St Anaheim, CA 92804 ","1,339 sqft","$576,000",33.83076,-117.97279
86," 1000 Figueroa St #23 Wilmington, CA 90744 ","17,400 sqft","$179,000",33.78222,-118.27907
87," 4520 Helens Oaks Cir Stockton, CA 95210 ","2,227 sqft","$347,900",37.994526,-121.28729
88," 837 Junipero Serra Dr Stockton, CA 95210 ","1,278 sqft","$295,000",38.035,-121.32188
89," 718 W 28th St San Pedro, CA 90731 ","2,500 sqft","$889,900",33.719044,-118.292145
90," 11949 N Julie Ave Fresno, CA 93730 ","2,893 sqft","$683,950",36.909607,-119.74088
91," 6950 E Avenida De Santiago Anaheim, CA 92807 ","5,000 sqft","$2,450,000",33.832794,-117.74789
92," 2650 Thrasher Ln San Jose, CA 95125 ","1,523 sqft","$1,058,421",37.27738,-121.8928
93," 1986 42nd Ave San Francisco, CA 94116 ","1,214 sqft","$998,000",37.749718,-122.50063
94," 50 Norwich Irvine, CA 92620 ","1,685 sqft","$879,888",33.70355,-117.740166
95," Residence 2 Plan in Asana by DeNova Homes San Jose, CA 95122 ","2,839 sqft","$1,190,000+",37.32245,-121.81322
96," 1119 Albany St #332 Los Angeles, CA 90015 ",797 sqft,"$385,000",34.045998,-118.27259
97," 503 E Barrymore St Stockton, CA 95204 ","1,279 sqft","$221,312",37.986813,-121.29569
98," 2036 Michael Ave Stockton, CA 95206 ","1,052 sqft","$259,950",37.925335,-121.25071
99," 6401 Bell Bluff Ave San Diego, CA 92119 ",806 sqft,"$340,000",32.81706,-117.057175
100," 2038 E 15th St Oakland, CA 94606 ","1,221 sqft","$399,000",37.78639,-122.23826
101," 321 10th Ave San Diego, CA 92101 ","1,077 sqft","$1,099,000",32.708847,-117.155075
102," 6339 Smith Ave Mira Loma, CA 91752 ","1,778 sqft","$515,000",33.973335,-117.53682
103," 1200 California St #16A San Francisco, CA 94109 ","1,450 sqft","$1,995,000",37.79167,-122.41453
104," 6171 Rancho Mission Rd #317 San Diego, CA 92108 ",866 sqft,"$355,000",32.785564,-117.10907
105," 53 Farmhand Irvine, CA 92602 ","2,515 sqft","$1,230,000",33.734055,-117.7579
106," 11717 Campus Park Dr Bakersfield, CA 93311 ","1,911 sqft","$344,900",35.31861,-119.13284
107," 449 Parker Ave San Francisco, CA 94118 ","5,150 sqft","$5,300,000",37.778465,-122.453865
108," 11925 Balboa Blvd Granada Hills, CA 91344 ","2,982 sqft","$1,083,000",34.288246,-118.50242
109," 1810 S Berendo St Los Angeles, CA 90006 ","5,649 sqft","$1,799,000",34.041042,-118.29314
110," 3602 Chatsworth Ct Stockton, CA 95209 ","1,674 sqft","$345,000",38.03599,-121.361
111," 252 9th St #202 San Francisco, CA 94103 ",715 sqft,"$799,000",37.774128,-122.41252
112," 13165 Sayre St Sylmar, CA 91342 ","1,357 sqft","$675,000",34.322876,-118.41991
113," 5906 Etiwanda Ave #2 Tarzana, CA 91356 ","1,060 sqft","$499,000",34.177822,-118.53023
114," 4335 Normal Ave Los Angeles, CA 90029 ","1,069 sqft","$749,000",34.08696,-118.29049
115," 13103 Old Sycamore Dr San Diego, CA 92128 ","2,081 sqft","$865,000",32.95498,-117.09362
116," 512 Telegraph Canyon Rd #G Chula Vista, CA 91910 ","1,186 sqft","$349,000",32.62781,-117.0414
117," 5028 Woodley Ave Encino, CA 91436 ","4,154 sqft","$2,300,000",34.16069,-118.483025
118," 8117 Westlawn Ave Los Angeles, CA 90045 ","3,446 sqft","$2,369,000",33.965164,-118.408424
119," 843 N Coronado St Los Angeles, CA 90026 ","2,664 sqft","$1,450,000",34.077816,-118.270164
120," 22601 Gilmore St West Hills, CA 91307 ","1,570 sqft","$625,000",34.18761,-118.6192
121," 1702 La Loma Dr Santa Ana, CA 92705 ","4,207 sqft","$2,448,000",33.755184,-117.78914
122," 2115 Bush St San Francisco, CA 94115 ","3,500 sqft","$4,950,000",37.78687,-122.432396
123," 51 Innes Ct #204 San Francisco, CA 94124 ","1,190 sqft","$899,000",37.726986,-122.36888
124," 16027 Leadwell St Van Nuys, CA 91406 ","1,040 sqft","$529,950",34.20417,-118.48253
125," 7421 McLennan Ave Lake Balboa, CA 91406 ","2,700 sqft","$820,000",34.205227,-118.5002
126," 945 E Foxhill Dr Fresno, CA 93720 ","1,270 sqft","$241,800",36.867096,-119.76542
127," 1935 N Crescent Heights Blvd Los Angeles, CA 90069 ","2,480 sqft","$2,250,000",34.10408,-118.37009
128," 4135 Ohio St #3 San Diego, CA 92104 ",908 sqft,"$510,000",32.752914,-117.12857
129," 5555 N Lucy Ruiz Ave Fresno, CA 93723 ","3,040 sqft","$485,000",36.81604,-119.9252
130," 3785 Wilshire Blvd #812 Los Angeles, CA 90010 ","1,690 sqft","$1,349,000",34.06277,-118.30871
131," 2395 26th Ave #1 San Francisco, CA 94116 ",802 sqft,"$815,000",37.74292,-122.48347
132," Residence 4 Plan in Verge at Novel Park by William Lyon Homes Irvine, CA 92618 ","1,631 sqft","$708,990+",33.69346,-117.7352
133," 1503 Menlo Ave Los Angeles, CA 90006 ","5,563 sqft","$2,200,000",34.04512,-118.29077
134," 3813 Goldbar Dr Bakersfield, CA 93312 ","1,242 sqft","$198,859",35.394844,-119.109566
135," 18165 Mariposa Ave Riverside, CA 92508 ","2,278 sqft","$559,900",33.872272,-117.34638
136," 932 Kilmarnock Way Riverside, CA 92508 ","2,125 sqft","$479,900",33.91461,-117.31523
137," 555 Fulton St #313 San Francisco, CA 94102 ",864 sqft,"$1,199,000",37.778168,-122.42575
138," 1005 30th St San Diego, CA 92102 ","1,199 sqft","$699,000",32.71616,-117.1294
139," 2730 Hollyridge Dr Los Angeles, CA 90068 ","1,977 sqft","$1,675,000",34.116474,-118.318665
140," 9912 Pavilion Dr Bakersfield, CA 93312 ","1,600 sqft","$299,950",35.426743,-119.11271
141," 1126 Latigo Cv #3 Chula Vista, CA 91915 ","1,321 sqft","$429,000",32.63825,-116.97013
142," 711 E Taylor St San Jose, CA 95112 ","2,058 sqft","$1,098,000",37.356308,-121.88574
143," 345 N Sycamore Ave Los Angeles, CA 90036 ","7,384 sqft","$2,995,000",34.07758,-118.343254
144," 10115 River Falls Cir Stockton, CA 95209 ","1,386 sqft","$369,950",38.043476,-121.346855
145," 3711 Lindbergh St San Diego, CA 92154 ","1,375 sqft","$469,000",32.586433,-117.05362
146," 4543 Narragansett Ave San Diego, CA 92107 ","1,044 sqft","$995,000",32.740227,-117.2448
147," 4021 Norton Ave Oakland, CA 94602 ","1,349 sqft","$825,000",37.798584,-122.19653
148," 5623 Impatiens Cmn Fremont, CA 94538 ",850 sqft,"$659,000",37.523415,-121.98531
149," 489 S Country Hill Rd Anaheim, CA 92808 ","3,046 sqft","$1,224,900",33.852066,-117.75519
150," 7513 Dos Rios Way Bakersfield, CA 93309 ","3,169 sqft","$485,000",35.347828,-119.086914
151," 6726 N Figueroa St Los Angeles, CA 90042 ","6,478 sqft","$1,995,000",34.124405,-118.18535
152," 1651 Burr Oak Pl Chula Vista, CA 91915 ","1,564 sqft","$399,000",32.62972,-116.940865
153," 2511 W 4th St Los Angeles, CA 90057 ","2,093 sqft","$1,200,000",34.064552,-118.27732
154," 408 A Ave Coronado, CA 92118 ","1,950 sqft","$1,850,000",32.69291,-117.17189
155," 420 Orange Ave Long Beach, CA 90802 ","8,672 sqft","$3,999,000",33.7725,-118.17579
156," 1239 Highridge St Riverside, CA 92506 ","2,088 sqft","$584,900",33.90573,-117.37249
157," 16020 Highland Dr San Jose, CA 95127 ","2,598 sqft","$1,499,000",37.389915,-121.81616
158," 11740 Calamar Dr San Diego, CA 92124 ","1,588 sqft","$745,000",32.819542,-117.07888
159," 1247 Silverado St La Jolla, CA 92037 ","1,250 sqft","$3,475,000",32.846794,-117.2704
160," 5520 Ensenada Way Riverside, CA 92504 ","1,517 sqft","$420,000",33.94803,-117.42338
161," 8905 Davis Rd #F37 Stockton, CA 95209 ",696 sqft,"$148,000",38.031395,-121.33266
162," 4857 N West Ave Fresno, CA 93705 ","1,476 sqft","$267,000",36.806053,-119.82688
163," 2946 Finch St Los Angeles, CA 90039 ","2,316 sqft","$1,395,000",34.111343,-118.26116
164," 3334 Over St Oakland, CA 94619 ","2,875 sqft","$230,000",37.7894,-122.20126
165," 7334 Satsuma Ave Sun Valley, CA 91352 ","1,144 sqft","$539,900",34.20395,-118.366905
166," 5509 Picker St Riverside, CA 92503 ","1,269 sqft","$375,000",33.93688,-117.46232
167," 1315 W 56th St Los Angeles, CA 90037 ",951 sqft,"$413,500",33.99175,-118.29859
168," 3110 Adeline St #116 Oakland, CA 94608 ",975 sqft,"$589,000",37.822735,-122.28082
169," 3727-31 Central Ave San Diego, CA 92105 ","1,476 sqft","$675,000",32.746536,-117.10785
170," 318 Main St #3E San Francisco, CA 94105 ","1,098 sqft","$1,398,000",37.788803,-122.391655
171," 17131 Roscoe Blvd #8 Northridge, CA 91325 ","1,368 sqft","$382,500",34.22207,-118.50535
172," 3207 14th Ave Oakland, CA 94602 ","3,584 sqft","$1,090,000",37.79985,-122.228546
173," 850 Beech St #1301 San Diego, CA 92101 ","1,142 sqft","$725,000",32.721348,-117.156975
174," 1325 Pacific Hwy #103 San Diego, CA 92101 ","1,448 sqft","$799,000",32.719265,-117.17052
175," 7750 Woodrow Wilson Dr Los Angeles, CA 90046 ","1,773 sqft","$1,995,000",34.12164,-118.36569
176," 2122 Castle Heights Ave Los Angeles, CA 90034 ","4,192 sqft","$4,200,000",34.04419,-118.39762
177," 4534 Alice St San Diego, CA 92115 ","1,222 sqft","$750,000",32.75985,-117.07204
178," 4233 Allott Ave Sherman Oaks, CA 91423 ","4,000 sqft","$1,379,000",34.14647,-118.4284
179," 2187 Summitridge Dr Beverly Hills, CA 90210 ","4,100 sqft","$5,920,000",34.113354,-118.42285
180," 2253 Berger St Bakersfield, CA 93305 ","1,096 sqft","$109,000",35.39247,-118.978004
181," 2887 Custer Dr San Jose, CA 95124 ","1,250 sqft","$1,088,000",37.269585,-121.91681
182," 1218 E 54th St Los Angeles, CA 90011 ","2,010 sqft","$555,900",33.993656,-118.25372
183," 3933 Arlington Ave Los Angeles, CA 90008 ","2,628 sqft","$675,000",34.01334,-118.31854
184," 16879 Mooncrest Dr Encino, CA 91436 ","1,700 sqft","$1,400,000",34.147396,-118.50158
185," 309-315 Potrero Ave San Francisco, CA 94103 ","8,381 sqft","$3,995,000",37.76551,-122.40718
186," 3411 Malabar St Los Angeles, CA 90063 ","3,289 sqft","$1,560,000",34.04447,-118.19036
187," 1031 W 109th Pl Los Angeles, CA 90044 ",864 sqft,"$389,900",33.93667,-118.293045
188," 7965 Purple Sage San Diego, CA 92127 ","3,878 sqft","$1,395,000",32.981735,-117.162315
189," 4939 Grange Ter Fremont, CA 94555 ",716 sqft,"$529,950",37.56284,-122.04655
190," 18950 Caminito Cantilena #27 San Diego, CA 92128 ","1,998 sqft","$739,000",33.053986,-117.06977
191," 2304 Richland Ave San Jose, CA 95125 ","1,950 sqft","$1,720,000",37.28793,-121.88972
192," 8086 Mission Blvd #37 Riverside, CA 92509 ","1,620 sqft","$149,000",34.01081,-117.459694
193," 15620 Olden St Sylmar, CA 91342 ","2,400 sqft","$900,000",34.31893,-118.4718
194," 1276 Poker Flat Pl San Jose, CA 95120 ","2,388 sqft","$1,218,000",37.233036,-121.88086
195," 943 Lombard St San Francisco, CA 94133 ","1,174 sqft","$1,999,999",37.80195,-122.41703
196," Residence 3 Plan in Altair Irvine : Starlight by Lennar Irvine, CA 92618 ","4,066 sqft","$1,874,990+",33.6812,-117.714
197," 4924 Arlington Ave Los Angeles, CA 90043 ","1,447 sqft","$589,900",33.998234,-118.31784
198," 3115 Olive St San Diego, CA 92104 ","2,601 sqft","$1,749,000",32.734974,-117.126465
199," 1311 5th Ave Los Angeles, CA 90019 ","4,724 sqft","$1,375,000",34.04697,-118.322754
200," 3645 Cardiff Ave #112 Los Angeles, CA 90034 ","1,039 sqft","$639,000",34.027752,-118.39854
201," 5301 Balboa Blvd #H10 Van Nuys, CA 91316 ","1,787 sqft","$525,000",34.16692,-118.50202
202," 1271 W 83rd St Los Angeles, CA 90044 ","2,027 sqft","$525,000",33.9639,-118.298294
203," 3721 El Sereno Ave Los Angeles, CA 90032 ",840 sqft,"$629,000",34.089306,-118.17823
204," 10910 Academy Ave Bakersfield, CA 93312 ","1,918 sqft","$325,000",35.40047,-119.12421
205," 2470 Myrtle Beach Way Chula Vista, CA 91915 ","1,438 sqft","$540,000",32.63211,-116.950966
206," 5478 Leigh Ave San Jose, CA 95124 ","1,480 sqft","$1,100,000",37.238342,-121.92229
207," 6172 Lewis Ave Long Beach, CA 90805 ",886 sqft,"$460,000",33.866814,-118.17985
208," 4825 W 7th St Santa Ana, CA 92703 ","2,332 sqft","$849,000",33.7511,-117.93361
209," 4883 Rue Tours Ct San Jose, CA 95136 ","1,446 sqft","$1,015,000",37.26367,-121.82892
210," Residence 1 Plan in Aventine at Otay Ranch by Cornerstone Communities Chula Vista, CA 91913 ","2,014 sqft","$546,990+",32.613297,-116.991
211," 9277 Warbler Way West Hollywood, CA 90069 ","2,609 sqft","$2,595,000",34.098976,-118.391914
212," 14199 Caminito Quevedo San Diego, CA 92129 ",945 sqft,"$339,900",32.967953,-117.09497
213," 2200 Edgewood St Bakersfield, CA 93306 ","1,289 sqft","$147,158",35.377895,-118.92834
214," 6241 Boulder Lake Ave San Diego, CA 92119 ","1,719 sqft","$674,000",32.79229,-117.020645
215," 366 Adrienne Ave Stockton, CA 95215 ",820 sqft,"$249,900",37.962296,-121.2281
216," 2722 E 20th St #105 Signal Hill, CA 90755 ","1,561 sqft","$549,900",33.792988,-118.16
217," 6385 Farm Hill Way San Jose, CA 95120 ","1,350 sqft","$1,120,000",37.224663,-121.86496
218," 99 Rausch St #521 San Francisco, CA 94103 ",834 sqft,"$1,440,000",37.776043,-122.409004
219," 13622 Chase St Arleta, CA 91331 ",893 sqft,"$475,000",34.231346,-118.42874
220," 1021 E Empire St San Jose, CA 95112 ","2,088 sqft","$1,450,000",37.354984,-121.87665
221," 354 S 46th St San Diego, CA 92113 ","1,366 sqft","$405,000",32.70143,-117.09616
222," 1057 Barrett Ave Chula Vista, CA 91911 ","1,430 sqft","$385,000",32.619102,-117.056564
223," 728 E Vassar Ave Fresno, CA 93704 ","1,105 sqft","$229,500",36.771034,-119.801735
224," 865 Rose Ave Venice, CA 90291 ","1,029 sqft","$1,495,000",34.00275,-118.465744
225," 40 28th St #1 San Francisco, CA 94110 ",623 sqft,"$795,000",37.745644,-122.42324
226," 1841 E Houston Ave Fresno, CA 93720 ","1,505 sqft","$329,500",36.850918,-119.749344
227," 5410 Teixeira Dr Stockton, CA 95215 ","1,484 sqft","$539,000",38.00306,-121.23727
228," 933 Hilgard Ave #202 Los Angeles, CA 90024 ",754 sqft,"$515,000",34.06293,-118.44169
229," 4440 Victoria Park Dr Los Angeles, CA 90019 ","6,130 sqft","$1,649,000",34.046795,-118.33226
230," 5031 San Feliciano Dr Woodland Hills, CA 91364 ","2,274 sqft","$869,000",34.160294,-118.60876
231," 7839 Broadleaf Ave Panorama City, CA 91402 ","1,742 sqft","$699,000",34.213097,-118.43827
232," 43 Cipresso Irvine, CA 92618 ","2,100 sqft","$1,240,000",33.645554,-117.75987
233," 4161 High Valley Rd Encino, CA 91436 ","5,396 sqft","$5,395,000",34.146767,-118.48352
234," 7164 Bradford St Riverside, CA 92503 ","1,325 sqft","$379,000",33.96004,-117.466736
235," 5447 Zelzah Ave #130 Encino, CA 91316 ",924 sqft,"$319,000",34.16957,-118.52216
236," The Walnut II Plan in Enclave at Mission Falls by Century Communities Fremont, CA 94539 ","2,035 sqft","$1,044,990+",37.4843,-121.92841
237," 1210 Chickory Ln Los Angeles, CA 90049 ","7,281 sqft","$4,495,000",34.081062,-118.48553
238," 6142 N El Dorado St Stockton, CA 95207 ","1,680 sqft","$305,000",38.009422,-121.30848
239," 1715 Paseo Aurora San Diego, CA 92154 ","1,326 sqft","$369,000",32.571537,-117.0383
240," 2309 Edmunds Ave Modesto, CA 95350 ","1,684 sqft","$329,990",37.683895,-121.03736
241," 3099 N McArthur Ave Fresno, CA 93727 ","1,665 sqft","$309,900",36.78088,-119.68169
242," 10120 Eton Ave Chatsworth, CA 91311 ","1,666 sqft","$629,999",34.254337,-118.594955
243," 260 William Manly St San Jose, CA 95136 ","2,761 sqft","$1,588,000",37.283768,-121.85303
244," 24 Blue Heron Irvine, CA 92603 ","7,000 sqft","$6,850,000",33.629612,-117.80297
245," 248 N Mountain View Ave Los Angeles, CA 90026 ","1,824 sqft","$999,000",34.068348,-118.26792
246," 11911 Lawler St Los Angeles, CA 90066 ","3,039 sqft","$2,595,000",34.01428,-118.43357
247," 11965 Claret Ct San Diego, CA 92131 ","3,362 sqft","$1,199,000",32.911148,-117.07507
248," 8934 Delano Dr Riverside, CA 92503 ","1,552 sqft","$399,999",33.936634,-117.44432
249," 5702 Ocean Jasper Dr Bakersfield, CA 93313 ","2,269 sqft","$360,300",35.290348,-119.07174
250," 17169 Lahey St Granada Hills, CA 91344 ","1,352 sqft","$614,999",34.273083,-118.50744
251," 250 Blossom Hill Rd San Jose, CA 95123 ","1,400 sqft","$839,500",37.251106,-121.81637
252," 5571 Avenue Juan Bautista Riverside, CA 92509 ","1,826 sqft","$425,000",33.98743,-117.434
253," 706 Mission St #7B San Francisco, CA 94103 ","2,566 sqft","$5,505,000",37.78591,-122.40279
254," 803 Central Ave San Francisco, CA 94115 ","1,457 sqft","$1,795,000",37.777164,-122.44518
255," 2260 W Robinwood Ln Fresno, CA 93711 ","3,545 sqft","$895,000",36.81761,-119.83225
256," 1901 N Catalina St Los Angeles, CA 90027 ","3,312 sqft","$2,485,000",34.105587,-118.29521
257," 17337 Emelita St Encino, CA 91316 ","1,466 sqft","$840,000",34.177776,-118.51119
258," 9277 Warbler Way Los Angeles, CA 90069 ","2,609 sqft","$2,595,000",34.098976,-118.391914
259," 1118 S Elm Dr Los Angeles, CA 90035 ","1,246 sqft","$1,599,000",34.056484,-118.39461
260," 6302 Lake Atlin Ave San Diego, CA 92119 ","1,098 sqft","$595,000",32.795616,-117.01232
261," 7709 Henefer Ave Los Angeles, CA 90045 ","1,564 sqft","$1,399,000",33.972443,-118.403984
262," 11171 Hunting Horn Dr Santa Ana, CA 92705 ","5,200 sqft","$2,088,000",33.7638,-117.78243
263," 4080 Pedley Rd #101 Riverside, CA 92509 ","1,344 sqft","$104,000",33.69569,-117.32368
264," 3588 N Saratoga Ave Fresno, CA 93722 ","1,093 sqft","$200,000",36.789837,-119.863754
265," 4411 Highland Pl Riverside, CA 92506 ","2,925 sqft","$497,000",33.972282,-117.39299
266," 11359 Darby Ave Porter Ranch, CA 91326 ","2,324 sqft","$829,900",34.277374,-118.53511
267," 1273 Pershing Rd Chula Vista, CA 91913 ","2,249 sqft","$629,000",32.614815,-116.99712
268," 15743 Hesby St Encino, CA 91436 ","1,870 sqft","$1,100,000",34.16297,-118.4765
269," 4629-31 Narragansett Ave San Diego, CA 92107 ","2,064 sqft","$1,699,000",32.741005,-117.24634
270," 1011 Beyer Way #3 San Diego, CA 92154 ","1,440 sqft","$129,900",32.576958,-117.061195
271," 5409 Valleybrook Dr Bakersfield, CA 93308 ","1,869 sqft","$279,000",35.40893,-119.07302
272," 12506 Ventosa Ln Eastvale, CA 91752 ","2,075 sqft","$425,000",33.9729,-117.55614
273," 1927 Glendon Ave #402 Los Angeles, CA 90025 ","1,530 sqft","$998,888",34.047874,-118.4342
275," 1 W Century Dr #7D Los Angeles, CA 90067 ","2,470 sqft","$3,295,000",34.0563,-118.41467
276," 1101 W 87th St Los Angeles, CA 90044 ","1,687 sqft","$599,000",33.95926,-118.29399
277," 3001 Grand Canal Venice, CA 90291 ","2,901 sqft","$3,999,999",33.98064,-118.465485
278," 7095 N Warren Ave Fresno, CA 93711 ","2,680 sqft","$489,900",36.839176,-119.829636
279," 4412 Delta St #34 San Diego, CA 92113 ","1,056 sqft","$284,900",32.689644,-117.099365
280," 825 E 4th St #305 Los Angeles, CA 90013 ","1,220 sqft","$810,000",34.043728,-118.2372
281," 1416 Glendale Blvd Los Angeles, CA 90026 ","1,332 sqft","$925,000",34.080215,-118.25975
282," 5921 N La Ventana Ave Fresno, CA 93723 ","4,549 sqft","$664,900",36.821823,-119.91508
283," 5971 E Avenida La Vida Anaheim, CA 92807 ","1,889 sqft","$769,900",33.84319,-117.782486
284," 6606 Rimridge Way Bakersfield, CA 93313 ","1,867 sqft","$255,953",35.29813,-119.075516
285," 110 James St Modesto, CA 95354 ","2,322 sqft","$625,000",37.63868,-120.98714
286," 1952 Hillcrest Dr Los Angeles, CA 90016 ","2,168 sqft","$1,295,000",34.03829,-118.33903
287," 3334 69th Ave Oakland, CA 94605 ","1,357 sqft","$649,000",37.771038,-122.17453
288," 1555 Ortega St Chula Vista, CA 91913 ","2,653 sqft","$690,000",32.614513,-116.98782
289," 645 W 9th St #202 Los Angeles, CA 90015 ",720 sqft,"$395,000",34.04581,-118.26058
290," 6979 Palm Ct #146 Riverside, CA 92506 ","1,026 sqft","$214,900",33.946976,-117.40197
291," 323 N Serrano Ave Los Angeles, CA 90004 ","3,091 sqft","$1,190,000",34.076965,-118.307205
292," 6904 Drift Creek St Bakersfield, CA 93313 ","1,821 sqft","$279,500",35.29691,-119.07908
293," 1438 Murchison St Los Angeles, CA 90033 ","2,033 sqft","$825,000",34.05852,-118.196205
294," 3185 Revere Ave Oakland, CA 94605 ","1,540 sqft","$749,000",37.736813,-122.134384
295," 11934 Roscoe Blvd North Hollywood, CA 91605 ","1,267 sqft","$559,999",34.221333,-118.3935
296," 341 Jersey St San Francisco, CA 94114 ","2,182 sqft","$1,595,000",37.750435,-122.432724
297," 10980 Elderwood Ln San Diego, CA 92131 ","1,984 sqft","$849,995",32.922775,-117.07168
298," 2006 S Canfield Ave Los Angeles, CA 90034 ","2,364 sqft","$2,195,000",34.044888,-118.39072
299," 117 Andirons Irvine, CA 92602 ","4,674 sqft","$2,350,000",33.73664,-117.75531
300," 9255 Doheny Rd #3105 West Hollywood, CA 90069 ","3,001 sqft","$13,500,000",34.090874,-118.39407
301," 4623 El Caballero Dr Tarzana, CA 91356 ","2,472 sqft","$1,049,000",34.15456,-118.546
302," 6129 Lindenhurst Ave Los Angeles, CA 90048 ","3,450 sqft","$3,499,000",34.066093,-118.36246
303," 3022 N North Coolidge Ave #7 Los Angeles, CA 90039 ","1,590 sqft","$840,650",34.11232,-118.26123
304," 8446 Ranchito Ave Panorama City, CA 91402 ","3,159 sqft","$825,000",34.22491,-118.436516
305," 15227 Valley Vista Blvd Sherman Oaks, CA 91403 ","1,726 sqft","$2,995,000",34.1488,-118.46503
306," 10143 Amestoy Ave Northridge, CA 91325 ","1,544 sqft","$799,999",34.255207,-118.50705
307," 765 Market St #24A San Francisco, CA 94103 ","2,677 sqft","$5,495,000",37.78604,-122.40501
308," 2803 Mission Blvd #55 Riverside, CA 92509 ","1,296 sqft","$59,900",34.010807,-117.46073
309," 5291 Elrose Ave San Jose, CA 95124 ","2,147 sqft","$1,798,000",37.242046,-121.914276
310," 7647 Mission Gorge Rd #10 San Diego, CA 92120 ","1,035 sqft","$399,000",32.808098,-117.06986
311," 2790 Sparta Rd #9 Chula Vista, CA 91915 ","1,465 sqft","$469,900",32.632484,-116.938354
312," 1636 Quailsprings Ct Chula Vista, CA 91913 ","3,025 sqft","$699,900",32.636017,-116.98937
313," 6488 Golfcrest Dr San Diego, CA 92119 ","2,422 sqft","$869,000",32.79518,-117.04227
314," 5871 Buena Vista Ave Oakland, CA 94618 ","3,725 sqft","$2,395,000",37.84675,-122.23694
315," 3224 Saint Marys St Bakersfield, CA 93305 ","1,405 sqft","$179,999",35.403347,-118.969765
316," 2110 Bonsallo Ave Los Angeles, CA 90007 ","3,658 sqft","$1,250,000",34.03317,-118.276695
317," 20611 Desert Ash Winnetka, CA 91306 ","1,995 sqft","$675,546",34.2092,-118.5756
318," 1413 Rosalia Dr Bakersfield, CA 93304 ","1,718 sqft","$169,000",35.329502,-119.01835
319," 5100 N State Route 99 Hwy #69 Stockton, CA 95212 ","1,440 sqft","$62,950",38.04752,-121.22839
320," 1807 N Cornelia Ave Fresno, CA 93722 ","2,381 sqft","$519,000",36.76206,-119.88145
321," 6502 Mont Blanc Ct Bakersfield, CA 93306 ","2,493 sqft","$365,500",35.387688,-118.9309
322," 8710 Belford Ave #118B Los Angeles, CA 90045 ",873 sqft,"$449,000",33.958176,-118.38353
323," 20 Stephens Way Berkeley, CA 94705 ","5,072 sqft","$3,250,000",37.8597,-122.235504
324," 3563 Ignacio Cir Stockton, CA 95209 ","1,595 sqft","$359,000",38.04787,-121.35531
325," 428 Alice St #507 Oakland, CA 94607 ",778 sqft,"$625,000",37.795773,-122.270134
326," 20345 Celtic St Chatsworth, CA 91311 ","2,973 sqft","$992,500",34.271667,-118.57701
327," 1953 E 12th St Stockton, CA 95206 ","1,407 sqft","$270,000",37.929127,-121.25427
328," 1970 Columbia St #306 San Diego, CA 92101 ","1,064 sqft","$579,000",32.72524,-117.16827
329," 547 Berland Way Chula Vista, CA 91910 ","1,921 sqft","$565,000",32.634693,-117.04003
330," 2395 26th Ave #5 San Francisco, CA 94116 ",898 sqft,"$795,000",37.74292,-122.48347
331," 355 E 56th St Los Angeles, CA 90011 ","2,258 sqft","$660,000",33.99182,-118.2682
332," 13248 Mercer St Pacoima, CA 91331 ","1,387 sqft","$449,900",34.269077,-118.42121
333," 6477 Caminito Estrellado San Diego, CA 92120 ","3,304 sqft","$849,000",32.79178,-117.0627
334," 1538 Hillsdale Ave San Jose, CA 95118 ","1,885 sqft","$1,388,000",37.26946,-121.897865
335," 11035 Rio Mesa Dr Bakersfield, CA 93308 ","3,292 sqft","$612,000",35.453827,-118.91936
336," 1417 Lomita Blvd #3 Harbor City, CA 90710 ","1,456 sqft","$549,000",33.799004,-118.30255
337," 3256 Zaccaria Way Stockton, CA 95212 ","2,188 sqft","$427,192",38.04897,-121.26653
338," Muse Plan 2 in Muse at Cadence Park by Taylor Morrison Irvine, CA 92618 ","1,933 sqft","$782,235+",33.682274,-117.72129
339," 625 Laconia Blvd Los Angeles, CA 90044 ","2,962 sqft","$650,240",33.91885,-118.28608
340," 2728 30th St Bakersfield, CA 93301 ","1,151 sqft","$239,900",35.388203,-119.026535
341," 12030 Rochester Ave #114 Los Angeles, CA 90025 ",906 sqft,"$525,000",34.04209,-118.46444
342," 12 Robblee Ave San Francisco, CA 94124 ","1,044 sqft","$1,280,000",37.736,-122.398735
343," 1066 Gladys Ave #2 Long Beach, CA 90804 ",810 sqft,"$369,900",33.780216,-118.15752
344," 1357 E 83rd St Los Angeles, CA 90001 ","1,520 sqft","$550,000",33.96358,-118.25014
345," 171 N Church Ln #305 Los Angeles, CA 90049 ","1,180 sqft","$769,000",34.07397,-118.46908
346," 812 Humphrey Pl Chula Vista, CA 91911 ","2,498 sqft","$659,000",32.614594,-117.01955
347," Residence 2 Plan in Patina at Belcourt Seven Oaks by Woodbridge Pacific Group Bakersfield, CA 93311 ","3,248 sqft","$560,000+",35.323193,-119.133156
348," 2996 E Michigan Ave Fresno, CA 93703 ","1,020 sqft","$205,000",36.77658,-119.77502
349," 3631 S Bear St #G Santa Ana, CA 92704 ",873 sqft,"$350,000",33.69943,-117.89204
350," 2081 Sunset Plaza Dr Los Angeles, CA 90069 ","4,481 sqft","$2,395,000",34.10555,-118.38341
351," 6369 Bonnie View Dr San Diego, CA 92119 ","1,877 sqft","$765,000",32.79274,-117.04845
352," 11015 Camellia Ave Fountain Valley, CA 92708 ","1,640 sqft","$849,000",33.719707,-117.93687
353," The Juniper Plan in Enclave at Mission Falls by Century Communities Fremont, CA 94539 ","1,496 sqft","$849,990+",37.4843,-121.92841
354," 806 S Manhattan Pl Los Angeles, CA 90005 ","4,508 sqft","$2,100,000",34.057693,-118.30984
355," 10331 Roscoe Blvd Sun Valley, CA 91352 ",858 sqft,"$549,000",34.22253,-118.35598
356," 4458 Drexel Ave Riverside, CA 92505 ","1,619 sqft","$445,000",33.91465,-117.482925
357," 402 63rd St #8 San Diego, CA 92114 ",858 sqft,"$99,000",32.70798,-117.06532
358," 2249 E Roosevelt St Stockton, CA 95205 ","1,681 sqft","$289,000",37.970173,-121.264595
359," 1081 Morse St San Jose, CA 95126 ","2,002 sqft","$1,468,000",37.341446,-121.92899
360," 3519 Carnation Ave Los Angeles, CA 90026 ","2,080 sqft","$1,500,000",34.094494,-118.27312
361," 3323 La Rue St Riverside, CA 92509 ","1,224 sqft","$319,985",34.006653,-117.412155
362," 3079 Caminito Sagunto Del Mar, CA 92014 ","2,331 sqft","$1,199,000",32.98268,-117.245834
363," 125 E 71st St Los Angeles, CA 90003 ","1,845 sqft","$535,000",33.975533,-118.27301
364," 6800 Kip Way Bakersfield, CA 93307 ","1,388 sqft","$205,000",35.29341,-119.01836
365," 4077 Kraft Ave Studio City, CA 91604 ","3,564 sqft","$1,995,000",34.14213,-118.380394
366," 7695 E Silver Dollar Ln Anaheim, CA 92808 ","2,639 sqft","$1,250,000",33.863155,-117.76112
367," 19714 Romar St Chatsworth, CA 91311 ","2,623 sqft","$949,000",34.254288,-118.56289
368," 10600 Sunset Hills Ln Bakersfield, CA 93306 ","1,559 sqft","$223,149",35.411497490366,-118.88634858538
369," 894 56th St Oakland, CA 94608 ","2,321 sqft","$879,000",37.840405,-122.273834
370," 12709 Hunnewell Ave Sylmar, CA 91342 ","1,958 sqft","$548,567",34.301083,-118.41967
371," 18125 Lake Encino Dr Encino, CA 91316 ","4,056 sqft","$2,489,000",34.149242,-118.52931
372," 8709 S Fir Ave Los Angeles, CA 90002 ","1,447 sqft","$499,900",33.958126,-118.237724
373," 13910 Seven Hills Dr Riverside, CA 92503 ","2,413 sqft","$678,000",33.879963,-117.4194
374," 677 G St #140 Chula Vista, CA 91910 ","1,152 sqft","$78,500",32.63465,-117.094246
375," 13109 Bloomfield St Sherman Oaks, CA 91423 ","1,926 sqft","$1,695,000",34.14943,-118.418564
376," 9231 Piatto Way San Diego, CA 92108 ","1,204 sqft","$612,800",32.786423,-117.13116
377," 61 Sequoyah View Dr Oakland, CA 94605 ","1,666 sqft","$900,000",37.7618,-122.13997
378," 220 W 112th St Los Angeles, CA 90061 ","3,700 sqft","$940,000",33.93268,-118.2769
379," 550 Orange Ave #240 Long Beach, CA 90802 ",686 sqft,"$327,990",33.773605,-118.17574
380," 5845 Doverwood Dr #317 Culver City, CA 90230 ","1,462 sqft","$755,000",33.982426,-118.389175
381," 4964 Arborwood Ln Riverside, CA 92504 ","2,320 sqft","$405,000",33.958675,-117.41172
382," 5165 Spanish Bay Cir Stockton, CA 95219 ","3,174 sqft","$865,000",37.971813,-121.362785
383," 3765 Vermont St San Diego, CA 92103 ","1,016 sqft","$925,000",32.746704,-117.15322
384," 24722 Lakme Ave Wilmington, CA 90744 ","1,003 sqft","$539,000",33.801395,-118.2609
385," Residence 2329 Plan in Carmel Ridge at Spring Mountain Ranch by KB Home Riverside, CA 92507 ","2,329 sqft","$463,990+",34.0076,-117.30194
386," 622 W 41st St Los Angeles, CA 90037 ","1,940 sqft","$650,000",34.00937,-118.284904
387," 62 Emerald Clover Irvine, CA 92620 ","1,611 sqft","$799,900",33.683754,-117.76106
388," 11818 Courtleigh Dr #204 Los Angeles, CA 90066 ","1,308 sqft","$799,000",33.997936,-118.417915
389," 2390 Azevedo Pkwy San Jose, CA 95125 ","1,690 sqft","$849,000",37.29571,-121.86426
390," RESIDENCE 1853 Plan in 22 @ Portside by D.R. Horton San Pedro, CA 90731 ","1,853 sqft","$737,950+",33.72742,-118.286
391," 2281 Fanwood Ave Long Beach, CA 90815 ",910 sqft,"$609,900",33.798954,-118.11645
392," 13781 Louvre St Pacoima, CA 91331 ",864 sqft,"$399,999",34.26468,-118.4336
393," 6601 Holmes Ave Los Angeles, CA 90001 ","1,549 sqft","$565,000",33.979496,-118.241425
394," 10531 Bluestone St San Diego, CA 92127 ","2,944 sqft","$999,000",33.023956,-117.1071
395," 966 Stone Canyon Rd Los Angeles, CA 90077 ","4,011 sqft","$5,500,000",34.091976,-118.447395
396," 18925 La Amistad Pl Tarzana, CA 91356 ","3,317 sqft","$1,349,000",34.150658,-118.54367
397," 7100 Playa Vista Dr #121 Playa Vista, CA 90094 ","1,510 sqft","$999,999",33.96959,-118.42503
398," 7166 N Fruit Ave #185 Fresno, CA 93711 ",884 sqft,"$144,900",36.84023,-119.81727
399," 2646 Union St San Francisco, CA 94123 ","5,465 sqft","$29,800,000",37.796432,-122.4429
400," 6369 Heatherwood Dr Riverside, CA 92509 ","1,655 sqft","$389,000",33.971676,-117.461044
401," 1260 Gertrude St San Diego, CA 92110 ","2,701 sqft","$1,000,000",32.771694,-117.20133
402," 407 Claratina Ave Modesto, CA 95356 ","2,132 sqft","$925,000",37.701622,-120.98856
403," 9803 Grey Goose St Bakersfield, CA 93311 ","2,011 sqft","$313,500",35.30532,-119.111084
404," 731 Adella Ave Coronado, CA 92118 ","5,100 sqft","$9,800,000",32.686733,-117.17376
405," 2864 N North Coolidge Ave Los Angeles, CA 90039 ","1,518 sqft","$849,000",34.102642,-118.246185
406," 643 W 74th St #2 Los Angeles, CA 90044 ","1,662 sqft","$650,000",33.972958,-118.28538
407," 3469 Lee St Los Angeles, CA 90023 ",764 sqft,"$449,900",34.02544,-118.19975
408," 13050 Alora Point San Diego, CA 92130 ","1,478 sqft","$795,000",32.962254,-117.18347
409," 831 Chautauqua Blvd Pacific Palisades, CA 90272 ","3,315 sqft","$3,950,000",34.044605,-118.5177
410," 2378 Buckingham Ln Los Angeles, CA 90077 ","4,843 sqft","$2,995,000",34.113274,-118.47632
411," 425 28th St #102A Oakland, CA 94609 ",997 sqft,"$599,000",37.816284,-122.266045
412," 3535 Stine Rd #112 Bakersfield, CA 93309 ","1,040 sqft","$45,000",35.323215,-119.058716
413," 1090 Acanto Pl Los Angeles, CA 90049 ","2,766 sqft","$2,890,000",34.084045,-118.47263
414," 12315 Colorado Ave Bakersfield, CA 93312 ","1,901 sqft","$295,000",35.409924,-119.13933
415," 25 Bartlett St #3 San Francisco, CA 94110 ","2,008 sqft","$1,850,000",37.75655,-122.41971
416," 12025 Susan Dr Granada Hills, CA 91344 ","2,277 sqft","$969,000",34.28851,-118.49644
417," 1183 Fetlock Way Riverside, CA 92506 ","2,798 sqft","$839,900",33.920208,-117.33758
418," 10800 Kendall Way Bakersfield, CA 93311 ","5,090 sqft","$1,299,999",35.335377,-119.12183
419," 4401 Hughes Ln #65 Bakersfield, CA 93304 ",960 sqft,"$65,000",35.315002,-119.0319
420," 20243 Labrador St Chatsworth, CA 91311 ","1,681 sqft","$634,900",34.249344,-118.57426
421," 20 Madrid St San Francisco, CA 94112 ","1,025 sqft","$849,000",37.72827,-122.428024
422," 1865 Nichols Canyon Rd Los Angeles, CA 90046 ","2,827 sqft","$1,699,000",34.10528,-118.359474
423," 5140 E Atherton St #25 Long Beach, CA 90815 ",868 sqft,"$364,900",33.788765,-118.131935
424," 591 Spruce St San Francisco, CA 94118 ","2,210 sqft","$2,995,000",37.78432,-122.453926
425," 5540 N Woodson Ave Fresno, CA 93711 ","3,228 sqft","$595,000",36.817963,-119.83671
426," 4229 26th St San Francisco, CA 94131 ","2,048 sqft","$2,495,000",37.747787,-122.434814
427," 1052 Lovoi Way San Jose, CA 95125 ","1,956 sqft","$1,899,000",37.294434,-121.88894
428," 2430 Chatsworth Blvd San Diego, CA 92106 ","1,480 sqft","$859,000",32.741356,-117.224525
429," 5519 Audrey Dr Stockton, CA 95207 ","1,183 sqft","$270,000",38.00356,-121.29997
430," 765 W 26th St #407 San Pedro, CA 90731 ","1,443 sqft","$550,000",33.72019,-118.29331
431," 178 Ridgewood Ave #C San Francisco, CA 94112 ","1,355 sqft","$1,248,000",37.731216,-122.45315
432," 4987 N Wishon Ct Fresno, CA 93704 ","3,022 sqft","$549,000",36.80795,-119.8054
433," 4476 W Terrace Ave Fresno, CA 93722 ","1,598 sqft","$250,000",36.773495,-119.87311
434," 800 Georgetown Pl San Jose, CA 95126 ","1,859 sqft","$1,350,000",37.326458,-121.90503
435," 902 Revere Way Bakersfield, CA 93312 ","2,005 sqft","$389,000",35.365795,-119.13709
436," 5923 E Harco St Long Beach, CA 90808 ","1,366 sqft","$700,000",33.827206,-118.115616
437," 850 Powell St #502 San Francisco, CA 94108 ","1,808 sqft","$1,695,000",37.79286,-122.40894
438," 13461 Roane Cir Santa Ana, CA 92705 ","2,932 sqft","$1,097,770",33.76617,-117.80221
439," 3655 16th St San Francisco, CA 94114 ","1,785 sqft","$968,000",37.763866,-122.43443
440," 100 Atlantic Ave #700 Long Beach, CA 90802 ",820 sqft,"$414,999",33.768402,-118.184616
441," 32 Mardi Gras Rd Coronado, CA 92118 ","1,830 sqft","$1,165,000",32.61523,-117.1343
442," 5931 S San Pedro St Los Angeles, CA 90003 ","1,342 sqft","$485,000",33.986584,-118.26988
443," 47 Starview Dr Oakland, CA 94618 ","2,062 sqft","$1,149,000",37.852406,-122.22681
444," 1422 E 60th St Los Angeles, CA 90001 ","2,071 sqft","$669,900",33.984955,-118.249054
445," 32 Boulder Vw Irvine, CA 92603 ","12,000 sqft","$10,750,000",33.632763,-117.78775
446," 2016 Dijon St Stockton, CA 95210 ","2,291 sqft","$334,900",38.0213,-121.288445
447," 16010 Wyandotte St Van Nuys, CA 91406 ","1,036 sqft","$500,000",34.202885,-118.481766
448," 25324 Bayside Pl Harbor City, CA 90710 ","1,355 sqft","$524,900",33.793976,-118.2914
449," 981 41st St #144 Oakland, CA 94608 ","1,445 sqft","$823,880",37.831905,-122.27593
450," 3275 N Bryan Ave Fresno, CA 93723 ","2,041 sqft","$41,800",36.78325,-119.90852
451," 2053 Redbird Dr San Diego, CA 92123 ","1,808 sqft","$899,000",32.782063,-117.15541
452," 420 Raymond Ave San Jose, CA 95128 ",606 sqft,"$725,000",37.321213,-121.9282
453," 2635 N Vagedes Ave Fresno, CA 93705 ","1,850 sqft","$279,900",36.77459,-119.81686
454," 9001 Owensmouth Ave #49 Canoga Park, CA 91304 ","1,655 sqft","$500,000",34.233086,-118.601845
455," 6225 E Sydney Dr Fresno, CA 93727 ","1,627 sqft","$296,140",36.777157,-119.67813
456," 4711 Grazing Ave Bakersfield, CA 93312 ","1,866 sqft","$285,000",35.40272,-119.13205
457," 7250 Franklin Ave #602 Los Angeles, CA 90046 ","1,377 sqft","$875,000",34.10294,-118.347466
458," 3812 La Salle Ave Los Angeles, CA 90062 ","1,056 sqft","$675,000",34.017014,-118.30535
459," 2215 Lake Shore Ave Los Angeles, CA 90039 ","4,200 sqft","$2,395,000",34.093037,-118.25367
460," 4321 Matilija Ave #8 Sherman Oaks, CA 91423 ","1,864 sqft","$749,999",34.149452,-118.43444
461," 13700 Marina Pointe Dr #910 Marina Del Rey, CA 90292 ",997 sqft,"$839,000",33.98457,-118.44539
462," 1348 E Austin Way Fresno, CA 93704 ","1,908 sqft","$349,900",36.794785,-119.794044
463," 3935 Glading Dr San Diego, CA 92154 ","1,874 sqft","$599,000",32.58135,-117.04952
464," 21114 Lemarsh St Chatsworth, CA 91311 ","1,940 sqft","$699,000",34.255283,-118.59365
465," 8 Landers St #401 San Francisco, CA 94114 ","1,227 sqft","$1,638,000",37.767548,-122.42803
466," 500 W Harbor Dr #140 San Diego, CA 92101 ","1,574 sqft","$1,150,000",32.711002,-117.16634
467," 2928 Morgan Ave Oakland, CA 94602 ",841 sqft,"$699,000",37.802315,-122.20141
468," 3319 E South Cherry Ave Fresno, CA 93706 ",940 sqft,"$151,000",36.652576,-119.902985
469," 3850 S Victoria Ave Los Angeles, CA 90008 ","1,993 sqft","$1,199,000",34.015774,-118.33636
470," 247 E 84th St Los Angeles, CA 90003 ","2,161 sqft","$675,000",33.963093,-118.27024
471," 13031 Villosa Pl #106 Playa Vista, CA 90094 ","1,680 sqft","$978,000",33.97451,-118.424324
472," 1763 Bramblewood Ct Chula Vista, CA 91913 ","2,944 sqft","$749,888",32.63509,-116.984024
473," 601 Coldwell Ave Modesto, CA 95354 ","1,948 sqft","$429,000",37.653137,-121.00088
474," 156 E 109th Pl Los Angeles, CA 90061 ","1,700 sqft","$509,900",33.93628,-118.27179
475," 2214 Lewis Puller Dr Bakersfield, CA 93301 ","1,358 sqft","$210,000",35.37966,-119.00719
476," 33 Gingerwood Irvine, CA 92603 ","1,643 sqft","$789,000",33.628498,-117.83123
477," 425 Navaro Way #111 San Jose, CA 95134 ","1,134 sqft","$789,000",37.40064,-121.92265
478," 2456 Balme Dr San Jose, CA 95122 ",648 sqft,"$374,950",37.315834,-121.83763
479," 815 Paseo Miramar Pacific Palisades, CA 90272 ","10,371 sqft","$25,000,000",34.04865,-118.55836
480," 5634 Stansbury Ave Van Nuys, CA 91401 ",741 sqft,"$715,000",34.173214,-118.44074
481," 1330 M St Bakersfield, CA 93301 ","1,259 sqft","$169,900",35.37023,-119.01495
482," 1664 E 68th St Los Angeles, CA 90001 ",816 sqft,"$318,000",33.977768,-118.24358
483," 1570 Plymouth Ave San Francisco, CA 94112 ","2,435 sqft","$1,929,000",37.73072,-122.45695
484," 2050 W Cameron St Long Beach, CA 90810 ",969 sqft,"$429,000",33.82335,-118.219864
485," 17842 Magnolia Blvd #20 Encino, CA 91316 ","1,190 sqft","$485,000",34.16498,-118.521614
486," 9831 Easton Dr Beverly Hills, CA 90210 ","1,335 sqft","$1,272,500",34.10935,-118.433014
487," 1657 E Benvenuto Dr Fresno, CA 93730 ","2,032 sqft","$749,950",36.904064,-119.75188
488," 5913 Condon Ave Los Angeles, CA 90056 ","1,600 sqft","$1,150,000",33.986553,-118.36139
489," 5447 Sunnyside Dr Riverside, CA 92504 ","1,118 sqft","$385,000",33.954304,-117.421814
490," 6129 Montgomery Ct San Jose, CA 95135 ","1,307 sqft","$650,000",37.287342,-121.75587
491," 5806 Carrotwood Ave Bakersfield, CA 93313 ","1,989 sqft","$316,800",35.291313,-119.06245
492," 716 Columbia Ave Los Angeles, CA 90017 ","2,309 sqft","$1,400,000",34.05209,-118.268616
493," 10407 Panther Falls Ave Bakersfield, CA 93312 ","2,294 sqft","$323,273",35.41951308585,-119.118664695
494," 2829 Malaga Way Modesto, CA 95355 ","1,546 sqft","$274,999",37.681202,-120.97115
495," 5261 Raber St Los Angeles, CA 90042 ","1,944 sqft","$1,049,000",34.127274,-118.19914
496," 12045 Guerin St #102 Studio City, CA 91604 ","1,889 sqft","$1,045,000",34.146305,-118.393776
497," W-2B Plan in Westbourne Park at Metro Crossing by Toll Brothers Fremont, CA 94539 ","1,305 sqft","$980,795+",37.501324,-121.93481
498," 1560 Hazelwood Ave Los Angeles, CA 90041 ",824 sqft,"$749,000",34.124752,-118.214325
499," 5464 Orange Ave San Diego, CA 92115 ",952 sqft,"$529,000",32.753338,-117.076965
500," 1830 Avenida Del Mundo #407 Coronado, CA 92118 ",809 sqft,"$1,299,000",32.67467,-117.172325
501," 150 N Carondelet St Los Angeles, CA 90026 ","2,357 sqft","$1,300,000",34.069916,-118.274
502," 120 Rankin Ave San Jose, CA 95110 ","2,051 sqft","$1,099,999",37.34503,-121.89965
503," 3615 Colonial Ave Los Angeles, CA 90066 ","2,585 sqft","$2,350,000",34.00715,-118.43809
504," 57 Rodgers St #A San Francisco, CA 94103 ",865 sqft,"$799,000",37.77507,-122.408775
505," 11021 Mirage Dr Bakersfield, CA 93311 ","2,025 sqft","$225,381",35.318287,-119.125084
506," 72-74 28th St San Francisco, CA 94110 ","3,100 sqft","$3,190,000",37.74573,-122.423706
507," 6241 Crescent Park W #304 Playa Vista, CA 90094 ","2,810 sqft","$1,695,000",33.970154,-118.42837
508," 15856 Wilkes Ln San Diego, CA 92127 ","2,537 sqft","$1,049,000",33.01246,-117.12856
509," 7131 Baird Ave Reseda, CA 91335 ","1,496 sqft","$4,000,000",34.200314,-118.53747
510," 6517 Matilija Ave Van Nuys, CA 91401 ","2,645 sqft","$1,295,000",34.18895,-118.43356
511," 10827 Lakemore Ln Stockton, CA 95219 ","3,166 sqft","$480,000",38.055584,-121.38929
512," 11558 Springwood Ct Riverside, CA 92505 ","2,706 sqft","$529,999",33.902027,-117.48915
513," Moonlight Plan in Sterling Acres : Skye Series by Lennar Fresno, CA 93727 ","2,269 sqft","$367,950+",36.7847,-119.673
514," Rothbury Plan in Highgate Proper at Seven Oaks by Castle & Cooke Bakersfield, CA 93311 ","2,255 sqft","$386,990+",35.33833,-119.1527
515," 1620 Electric Ave Venice, CA 90291 ","3,521 sqft","$4,695,000",33.99063,-118.46263
516," 250 S Vendome St Los Angeles, CA 90057 ","2,140 sqft","$1,200,000",34.068974,-118.283844
517," 1733 Truckee Way Modesto, CA 95351 ","1,259 sqft","$359,995",37.610073,-120.96425
518," 1764 Biscayne Way San Jose, CA 95122 ","1,040 sqft","$725,000",37.335045,-121.835495
519," 1099 1st St #203 Coronado, CA 92118 ","2,189 sqft","$2,125,000",32.699554,-117.172676
520," 4156 Floral Dr Los Angeles, CA 90063 ","1,434 sqft","$738,888",34.04389,-118.176056
521," 1931 E Marsh St Stockton, CA 95205 ",776 sqft,"$220,000",37.9531,-121.2641
522," 3747 N Diana St Fresno, CA 93726 ","1,218 sqft","$199,200",36.785717,-119.78633
523," 185 S Heath Ter Anaheim, CA 92807 ","4,884 sqft","$1,989,888",33.854416,-117.76975
524," 2911 W 30th St Los Angeles, CA 90018 ","1,132 sqft","$749,999",34.027794,-118.32761
525," 9094 La Casita Ave Fountain Valley, CA 92708 ","1,593 sqft","$800,000",33.71243,-117.97021
526," 12507 Chanute St Pacoima, CA 91331 ","2,527 sqft","$725,000",34.263397,-118.40538
527," 141 Ashdale Ave Los Angeles, CA 90049 ","4,316 sqft","$6,250,000",34.073418,-118.46146
528," 5942 Maccall St Oakland, CA 94609 ","3,034 sqft","$1,595,000",37.845108,-122.266846
529," 5088 Scholarship Irvine, CA 92612 ","1,701 sqft","$895,000",33.666122,-117.85306
530," 6912 Tunney Ave Reseda, CA 91335 ","2,056 sqft","$675,000",34.19595,-118.55622
531," 9253 Regents Rd #A305 La Jolla, CA 92037 ",764 sqft,"$434,000",32.874477,-117.21731
532," 6668 Mohawk St San Diego, CA 92115 ","1,721 sqft","$798,000",32.770195,-117.05476
533," 1805 Kenmore Dr W Fresno, CA 93703 ",912 sqft,"$179,800",36.766956,-119.76321
534," 267 S San Pedro St #607 Los Angeles, CA 90012 ","1,060 sqft","$549,000",34.047737,-118.242676
535," 10903 Vista Del Rancho Dr Bakersfield, CA 93311 ","3,020 sqft","$344,000",35.306835,-119.12361
536," 1800 Oscar Ave Bakersfield, CA 93304 ","1,275 sqft","$140,320",35.328156,-119.02229
537," 1066 Bird Ave San Jose, CA 95125 ","2,866 sqft","$2,299,000",37.31238,-121.89617
538," 165 Blossom Hill Rd #320 San Jose, CA 95123 ","1,171 sqft","$267,900",37.255863,-121.806984
540," 20717 Lemarsh St #E Chatsworth, CA 91311 ","1,363 sqft","$430,000",34.25631,-118.58528
541," 4416 Bancroft St San Diego, CA 92116 ",792 sqft,"$629,000",32.75758,-117.12425
542," 2800 Kaibab Ave Bakersfield, CA 93306 ","1,680 sqft","$240,000",35.40442,-118.96146
543," 322 Hanover Ave #512 Oakland, CA 94606 ","1,005 sqft","$749,000",37.80231,-122.25144
544," 1645 Vine St #610 Los Angeles, CA 90028 ","1,000 sqft","$745,000",34.101276,-118.32709
545," Bella Plan in Copper River Ranch by Granville Homes Fresno, CA 93730 ","2,600 sqft","$579,950+",36.90408,-119.75268
546," 336 E Alluvial Ave #9 Fresno, CA 93720 ","1,100 sqft","$40,000",36.846153,-119.781425
547," 20337 Stanford Ave Riverside, CA 92507 ","3,600 sqft","$699,900",33.954166,-117.30805
548," 1835 Guy St San Diego, CA 92110 ","2,683 sqft","$998,500",32.745983,-117.18242
549," 10752 Limonite Ave Jurupa Valley, CA 91752 ","2,000 sqft","$369,000",33.97521,-117.520035
550," 107 Pusan Way Irvine, CA 92618 ","1,653 sqft","$798,879",33.68234,-117.716
551," 1504 Stockton Ave Bakersfield, CA 93308 ",825 sqft,"$129,900",35.419987,-119.02417
552," 77 Dow Pl #1307 San Francisco, CA 94107 ","1,065 sqft","$1,095,000",37.784187,-122.396675
553," 737 Castro St San Francisco, CA 94114 ","2,705 sqft","$3,500,000",37.757103,-122.43431
554," 10722 Rockhurst Ave Santa Ana, CA 92705 ","5,652 sqft","$2,650,000",33.776127,-117.78626
555," 8339 N Pershing Ave Stockton, CA 95209 ","1,700 sqft","$330,000",38.025654,-121.330475
556," 11051 Cleveland Ave Riverside, CA 92503 ","2,302 sqft","$587,100",33.885597,-117.45988
557," 1418 Scholarship Irvine, CA 92612 ","1,605 sqft","$795,000",33.66742,-117.85139
558," 485 Ardis Ave San Jose, CA 95117 ","1,098 sqft","$1,125,000",37.318893,-121.95772
559," 14996 Avenida Venusto #33 San Diego, CA 92128 ",708 sqft,"$317,000",32.990894,-117.0687
560," Residence 3 Plan in Pacific Village : The Commons by Lennar San Diego, CA 92129 ","2,270 sqft","$850,900+",32.9749,-117.091
561," 14824 Sunrise Hill Rd Riverside, CA 92508 ","4,264 sqft","$775,000",33.904026,-117.34618
562," 4630 Hammel St Los Angeles, CA 90022 ","1,560 sqft","$425,000",34.042137,-118.16606
563," 2017 Polk Ave San Diego, CA 92104 ","2,059 sqft","$1,400,000",32.751984,-117.14325
564," 280 Spear St #10A San Francisco, CA 94105 ","1,453 sqft","$1,850,000",37.79027,-122.391464
565," 10543 Addison St North Hollywood, CA 91601 ","1,826 sqft","$874,999",34.16142,-118.3607
566," 8200 Jantzen Rd #170 Modesto, CA 95357 ","1,940 sqft","$95,000",37.626003,-120.84567
567," 1545 W Flora St Stockton, CA 95203 ","1,015 sqft","$175,000",37.95745,-121.31444
568," 10714 Cotter St Oakland, CA 94605 ","2,302 sqft","$879,000",37.755817,-122.123405
569," 12368 Carmel Country Rd #307 San Diego, CA 92130 ","1,201 sqft","$629,000",32.94727,-117.2277
570," 700 W East St #1805 San Diego, CA 92101 ",985 sqft,"$689,000",32.715122,-117.16958
571," 751 S Windsor Blvd Los Angeles, CA 90005 ","2,763 sqft","$1,500,000",34.060524,-118.32249
572," 216 W 49th St Los Angeles, CA 90037 ","1,731 sqft","$580,000",33.998055,-118.27673
573," 178 Prospect Ave Long Beach, CA 90803 ","1,232 sqft","$849,000",33.761784,-118.14013
574," 501 W E St Wilmington, CA 90744 ","1,058 sqft","$489,900",33.775455,-118.2676
575," 8324 Barnsley Ave Westchester, CA 90045 ","1,662 sqft","$1,050,000",33.96266,-118.38447
576," 2949 Deep Canyon Dr Beverly Hills, CA 90210 ","4,782 sqft","$2,999,000",34.12764,-118.43107
577," 1714 W Adams St Santa Ana, CA 92704 ","1,620 sqft","$719,900",33.711765,-117.89186
578," 213 Kenbrook Cir San Jose, CA 95111 ",724 sqft,"$375,000",37.287132,-121.84052
579," 3634 7th Ave #9BC San Diego, CA 92103 ","1,933 sqft","$850,000",32.743675,-117.158676
580," 2995 Cambridge Dr San Jose, CA 95125 ","2,109 sqft","$1,388,888",37.277393,-121.88316
581," 2118 N Glenn Ave Fresno, CA 93704 ","3,900 sqft","$419,900",36.769802,-119.79317
582," 1858 Chatsworth Blvd San Diego, CA 92107 ","1,670 sqft","$799,000",32.73505,-117.232864
583," 1615 San Luis Rey Ave Coronado, CA 92118 ","2,540 sqft","$2,299,000",32.686283,-117.171005
584," 9901 Kip Dr Beverly Hills, CA 90210 ","7,466 sqft","$7,495,000",34.10153,-118.432465
585," 5866 Cadiz Dr San Jose, CA 95123 ","1,452 sqft","$888,888",37.242657,-121.85101
586," 25569 Pine Creek Ln #67 Wilmington, CA 90744 ","1,170 sqft","$359,000",33.79182,-118.28376
587," 20335 Paseo Meriana Northridge, CA 91326 ","1,381 sqft","$625,000",34.27515,-118.57664
588," 616 Cultivate Irvine, CA 92618 ","2,166 sqft","$931,210",33.68535,-117.73601
589," 5935 E Pitt Ave Fresno, CA 93727 ","2,280 sqft","$342,490",36.717957,-119.71262
590," 1023 S Citron St #21 Anaheim, CA 92805 ",962 sqft,"$297,000",33.819157,-117.917404
591," 6726 Gross Ave West Hills, CA 91307 ","2,340 sqft","$799,999",34.19296,-118.63995
592," 2107 Beau Pre St Stockton, CA 95206 ","1,234 sqft","$294,900",37.922638,-121.31614
593," 525 E 238th Pl Carson, CA 90745 ",775 sqft,"$415,000",33.809048,-118.26584
594," 10726 N Golden Eagle Dr Fresno, CA 93730 ","4,841 sqft","$1,299,000",36.89245,-119.75219
595," 4904 Tujunga Ave North Hollywood, CA 91601 ","5,831 sqft","$2,350,000",34.160046,-118.378685
596," 11209 Hooper Ave Los Angeles, CA 90059 ",835 sqft,"$405,000",33.93279,-118.252495
597," 410 N Kilkea Dr Los Angeles, CA 90048 ","4,028 sqft","$4,395,000",34.07848,-118.36661
598," 11607 Zancara Dr Bakersfield, CA 93311 ","1,679 sqft","$265,000",35.302437,-119.131516
599," 19423 De Marco Rd Riverside, CA 92508 ","3,381 sqft","$525,000",33.90381,-117.32332
600," 5343 Yarmouth Ave #104 Encino, CA 91316 ","1,502 sqft","$529,000",34.168137,-118.52076
601," 2358 Las Colinas Ave Los Angeles, CA 90041 ",943 sqft,"$699,000",34.131775,-118.22035
602," 331 Tradewinds Dr San Jose, CA 95123 ","1,122 sqft","$599,950",37.25528,-121.829605
603," 1301 S Hudson Ave Los Angeles, CA 90019 ","1,839 sqft","$1,149,000",34.050938,-118.33765
604," 5261 E Fairlee Ct Anaheim, CA 92807 ","3,000 sqft","$1,099,999",33.84366,-117.80258
605," 1655 Clark Ave #124 Long Beach, CA 90815 ","1,339 sqft","$475,000",33.788,-118.134964
606," 34 Talisman Irvine, CA 92620 ","1,512 sqft","$799,000",33.696087,-117.74709
607," 132 Beechmont Irvine, CA 92620 ","2,450 sqft","$1,225,000",33.708927,-117.74235
608," 11808 Fellows Ave San Fernando, CA 91340 ","1,705 sqft","$575,000",34.28409,-118.41961
609," 7096 E Blackbird Ln Anaheim, CA 92807 ","3,043 sqft","$1,049,999",33.844154,-117.75619
610," 122 Kestrel Irvine, CA 92618 ","1,460 sqft","$749,000",33.70213,-117.72865
611," 1285 Bird Ave San Jose, CA 95125 ","1,120 sqft","$965,000",37.308315,-121.8933
612," 1452 Santa Victoria Rd #1 Chula Vista, CA 91913 ","1,163 sqft","$419,900",32.615143,-116.98773
613," 5300 Sweetwater Trails San Diego, CA 92130 ","4,495 sqft","$1,867,375",32.948673,-117.20564
614," 8536 Kern Canyon Rd #49 Bakersfield, CA 93306 ","1,296 sqft","$24,277",35.38181,-118.907906
615," 3757 Del Rio Dr Stockton, CA 95204 ","1,564 sqft","$399,000",37.972942,-121.3484
616," 3336 Tica Dr Los Angeles, CA 90027 ","2,194 sqft","$1,595,000",34.1145,-118.27984
617," 1985 15th St San Francisco, CA 94114 ","2,975 sqft","$2,995,000",37.76593,-122.42835
618," 2379 39th Ave San Francisco, CA 94116 ","1,362 sqft","$1,299,000",37.74251,-122.497475
619," 18550 Hatteras St #115 Tarzana, CA 91356 ","1,203 sqft","$395,701",34.176464,-118.53801
620," 2172 Pettigrew Dr San Jose, CA 95148 ","1,645 sqft","$898,000",37.316406,-121.80694
621," 9392 Flicker Way West Hollywood, CA 90069 ","3,500 sqft","$5,495,000",34.096333,-118.39444
622," 4244 N Cresta Ave Fresno, CA 93723 ","3,058 sqft","$433,002",36.81212,-119.90425
623," 3725 Gleneagles Dr Tarzana, CA 91356 ","3,404 sqft","$1,295,000",34.136833,-118.5639
624," 1608-1612 Dolores St San Francisco, CA 94131 ","2,350 sqft","$4,685,000",37.743515,-122.42477
625," 1901 Sunflower Ct Modesto, CA 95356 ","3,454 sqft","$519,990",37.702587,-121.027405
626," 14212 Hamlin St Van Nuys, CA 91401 ","1,042 sqft","$599,900",34.18853,-118.44273
627," 352 N Orlando Ave Los Angeles, CA 90048 ","1,709 sqft","$1,987,000",34.077583,-118.372856
628," 1504 Hazelmere Ct Bakersfield, CA 93311 ","3,147 sqft","$554,000",35.34152,-119.115204
629," 386 Santa Clara Ave #204 Oakland, CA 94610 ","1,071 sqft","$565,000",37.81309,-122.24803
630," 2314 Prosser Ave Los Angeles, CA 90064 ","2,860 sqft","$2,449,000",34.045822,-118.42225
631," 1466 E 51st St Los Angeles, CA 90011 ","1,704 sqft","$499,000",33.996506,-118.24846
632," 6018 Carver Rd Modesto, CA 95356 ","4,630 sqft","$2,550,000",37.727036,-121.0202
633," 10825 Coronado Pointe Dr Bakersfield, CA 93311 ","2,021 sqft","$299,900",35.295303,-119.12298
634," 1611 E Cesar E Chavez Ave Los Angeles, CA 90033 ","6,156 sqft","$1,650,000",34.05181,-118.218155
635," 10445 Kewen Ave Pacoima, CA 91331 ","1,496 sqft","$539,900",34.260254,-118.425385
636," 225 Manitoba Ter Fremont, CA 94538 ","1,560 sqft","$269,000",37.512268,-121.955795
637," 901 Tennessee St #211 San Francisco, CA 94107 ","1,228 sqft","$1,699,000",37.760227,-122.38915
638," 14150 Clayton Rd San Jose, CA 95127 ","2,212 sqft","$1,300,000",37.365,-121.7723
639," 3620 Pershing Ave San Diego, CA 92104 ","1,249 sqft","$839,000",32.744377,-117.13495
640," 3455 Adams Ave #6 San Diego, CA 92116 ",910 sqft,"$430,000",32.763176,-117.11879
641," 800 A Ave Coronado, CA 92118 ","3,221 sqft","$3,100,000",32.687294,-117.17519
642," 6847 New Ridge Dr Riverside, CA 92506 ","1,901 sqft","$479,900",33.926193,-117.33357
643," 24124 Highlander Rd West Hills, CA 91307 ","1,600 sqft","$745,000",34.196026,-118.65086
644," 1366 40th Ave San Francisco, CA 94122 ","1,290 sqft","$1,100,000",37.761345,-122.499214
645," 2499 Knob Hill Dr Riverside, CA 92506 ","8,000 sqft","$1,749,000",33.948917,-117.36488
646," 21001 Plummer St #99 Chatsworth, CA 91311 ","1,344 sqft","$145,000",34.24377,-118.591255
647," 2714 Hyans St Los Angeles, CA 90026 ","1,778 sqft","$999,999",34.072178,-118.27682
648," 5033 W Minarets Ave Fresno, CA 93722 ","2,652 sqft","$439,500",36.84125,-119.882385
649," 8443 Brier Dr Los Angeles, CA 90046 ","2,221 sqft","$1,050,000",34.104656,-118.37499
650," 2228 E Westport Dr Anaheim, CA 92806 ","7,622 sqft","$2,950,000",33.83653,-117.885124
651," 4016 Ashfield Way Modesto, CA 95356 ","2,553 sqft","$396,000",37.697308,-121.06596
652," Address Not Disclosed Bakersfield, CA 93308 ","1,449 sqft","$259,800",35.403557,-119.07666
653," 6355 E Balch Ave Fresno, CA 93727 ","1,700 sqft","$299,000",36.73918,-119.67571
654," 11885 Sierra Glen Dr Riverside, CA 92505 ","2,682 sqft","$489,900",33.926594,-117.50969
655," 2060 Donnici St San Jose, CA 95136 ","1,757 sqft","$935,000",37.288807,-121.86336
656," 20335 Via Galileo Porter Ranch, CA 91326 ","4,721 sqft","$1,489,000",34.295776,-118.57677
657," 774 Andover St San Francisco, CA 94110 ",875 sqft,"$830,151",37.733486,-122.41718
658," 288 W Canadian Ave Fresno, CA 93711 ","3,365 sqft","$799,000",36.862682,-119.79628
659," 7103 Marina Pacifica Dr N #13 Long Beach, CA 90803 ","1,852 sqft","$798,000",33.759624,-118.1166
660," 6741 Avenida Manana La Jolla, CA 92037 ","4,210 sqft","$3,495,000",32.832138,-117.26625
661," 2299 Market St #204 San Francisco, CA 94114 ",860 sqft,"$1,187,000",37.76409,-122.43284
662," 5422 Adobe Falls Rd #14 San Diego, CA 92120 ","1,144 sqft","$320,976",32.782325196105,-117.08245531936
663," 2710 Rain Dr Bakersfield, CA 93313 ","1,501 sqft","$229,950",35.291737,-119.03295
664," 5471 Country Club Pkwy San Jose, CA 95138 ","6,081 sqft","$12,500,000",37.27482,-121.77266
665," 1224 Coyote Creek Ct San Jose, CA 95116 ",849 sqft,"$499,950",37.352245,-121.87156
666," 4444 Cessna St Riverside, CA 92509 ","1,898 sqft","$469,000",33.98716,-117.40769
667," 267 S San Pedro St #306 Los Angeles, CA 90012 ",970 sqft,"$519,000",34.047737,-118.242676
668," 16912 Laurel Hill Ln #121 San Diego, CA 92127 ","1,450 sqft","$574,950",33.022507,-117.11373
669," 14023 Weddington St Sherman Oaks, CA 91401 ","2,363 sqft","$1,149,000",34.16693,-118.43865
670," 631 N Martel Ave Los Angeles, CA 90036 ","4,122 sqft","$3,750,000",34.082798,-118.35143
671," 66 Cleary Ct #604 San Francisco, CA 94109 ","1,106 sqft","$995,000",37.784386,-122.42697
672," 2976 Locust St San Diego, CA 92106 ","1,484 sqft","$990,000",32.74478,-117.21389
673," 10590 Wilshire Blvd #902 Los Angeles, CA 90024 ","1,202 sqft","$699,500",34.061546,-118.43325
674," 2144 Big Horn Dr #252 Chula Vista, CA 91915 ","1,437 sqft","$445,000",32.6231,-116.96167
675," 7530 Draper Ave La Jolla, CA 92037 ","2,188 sqft","$1,275,000",32.84012,-117.27662
676," 1645 W Wisteria Pl Santa Ana, CA 92703 ","1,136 sqft","$559,999",33.737164,-117.890816
677," 711 Chestnut Ave Los Angeles, CA 90042 ","1,472 sqft","$1,149,000",34.117443,-118.17214
678," 3814 Mount Everest Blvd San Diego, CA 92111 ","1,352 sqft","$725,000",32.810734,-117.18661
679," 5800 3rd St San Francisco, CA 94124 ","1,083 sqft","$795,000",37.725414,-122.39469
680," 185 19th Ave San Francisco, CA 94121 ","1,812 sqft","$1,950,000",37.78443,-122.47886
681," 2957 E Eclipse Ave Fresno, CA 93720 ","1,458 sqft","$319,900",36.874397,-119.73102
682," 4950-52 Hawley Blvd San Diego, CA 92116 ","1,752 sqft","$995,000",32.768223,-117.11979
683," 750 E 53rd St #2 Los Angeles, CA 90011 ","2,132 sqft","$649,900",33.99388,-118.261826
684," 63 White Ln Bakersfield, CA 93307 ","1,092 sqft","$699,000",35.316578,-119.006905
685," 45630 Montclaire Ter Fremont, CA 94539 ","4,962 sqft","$2,800,000",37.51399,-121.915924
686," 13050 Caminito Del Rocio Del Mar, CA 92014 ","1,426 sqft","$1,199,000",32.937435,-117.25638
687," 4260 44th St #331 San Diego, CA 92115 ",462 sqft,"$149,900",32.754253,-117.10006
688," 11918 Olive Glen Ln Los Angeles, CA 90047 ","1,871 sqft","$620,000",33.9249,-118.30316
689," 22421 Mulholland Dr Woodland Hills, CA 91364 ","1,928 sqft","$1,099,000",34.15004,-118.614876
690," 4614 Edgewood Ave Oakland, CA 94602 ","1,393 sqft","$799,000",37.809975,-122.218025
691," 4553 E Larkspur Cir Anaheim, CA 92807 ","1,246 sqft","$620,000",33.867268,-117.81659
692," RESIDENCE 2 Plan in THE VILLAGE OF ESCAYA : Castellena by CalAtlantic Homes Chula Vista, CA 91913 ","2,986 sqft","$698,900+",32.5966,-117.004
693," 119 Lane St Modesto, CA 95354 ","1,786 sqft","$315,000",37.641773,-120.9881
694," 15657 Tanner Ridge Rd San Diego, CA 92127 ","2,771 sqft","$975,000",33.014793,-117.13217
695," 7726 Kentwood Ave Los Angeles, CA 90045 ","3,362 sqft","$1,995,000",33.972324,-118.40096
696," 3702-3702A 22nd St San Francisco, CA 94114 ","1,850 sqft","$3,995,000",37.758068,-122.435715
697," 15611 Carparzo Dr Bakersfield, CA 93314 ","1,722 sqft","$310,000",35.39197,-119.17628
698," 12412 Texas Ave #102 Los Angeles, CA 90025 ","1,526 sqft","$830,000",34.040375,-118.46849
699," 4719 Atoll Ave Sherman Oaks, CA 91423 ","2,671 sqft","$1,599,000",34.156364,-118.42065
700," 7 Hunter Irvine, CA 92620 ","3,216 sqft","$1,200,000",33.703983,-117.76186
701," 6350 Genesee Ave #211 San Diego, CA 92122 ",816 sqft,"$379,000",32.853275,-117.20474
702," 2658 E Shea Dr Fresno, CA 93720 ","3,405 sqft","$539,900",36.87153,-119.736244
703," 7018 Olen Arnold Ave Bakersfield, CA 93307 ","1,842 sqft","$329,999",35.29071,-119.00428
704," 3424 Mona Way Bakersfield, CA 93309 ","1,453 sqft","$192,990",35.348408,-119.0424
705," 5641 E Butler Ave Fresno, CA 93727 ","5,424 sqft","$859,000",36.729218,-119.69839
706," 737 E 47th St #2 Los Angeles, CA 90011 ","1,724 sqft","$430,000",34.00098,-118.26271
707," 3417 Futura Rose Ave Bakersfield, CA 93313 ","2,208 sqft","$246,818",35.289825,-119.04107
708," 2087 E Axelson Dr Fresno, CA 93730 ","1,753 sqft","$389,999",36.894108,-119.74516
709," 1575 W Harriet Ln Anaheim, CA 92802 ","1,314 sqft","$639,900",33.81248,-117.93597
710," 555 Fulton St #305 San Francisco, CA 94102 ",504 sqft,"$775,000",37.778168,-122.42575
711," 6010 Hamilton Dr Riverside, CA 92506 ","1,128 sqft","$360,000",33.96066,-117.386635
712," 9625 Highland Gorge Dr Beverly Hills, CA 90210 ","1,300 sqft","$1,495,000",34.096226,-118.4158
713," 16946 Avenida De Santa Ynez Pacific Palisades, CA 90272 ","3,298 sqft","$2,340,000",34.074074,-118.56074
714," 2318 Calhoun Way Stockton, CA 95207 ","1,281 sqft","$268,800",38.00291,-121.339905
715," 4413 Bidwell Pl Stockton, CA 95207 ","1,387 sqft","$289,999",37.989166,-121.308334
716," 1296 S Citrus Ave Los Angeles, CA 90019 ","5,438 sqft","$2,100,000",34.050224,-118.34334
717," 14955 Foothill Blvd Sylmar, CA 91342 ","1,168 sqft","$589,900",34.3228,-118.45931
718," 195 S Peralta Hills Dr Anaheim, CA 92807 ","6,946 sqft","$2,800,000",33.84025,-117.82633
719," 56 Gravity Irvine, CA 92618 ","4,648 sqft","$3,701,600",33.675915,-117.70974
720," 8519 Yearling Way Riverside, CA 92509 ","3,012 sqft","$715,000",33.978703,-117.46815
721," 1833 Oregon Ave Long Beach, CA 90806 ","1,098 sqft","$499,999",33.790554,-118.20194
722," 1856 Sumatra Ave San Jose, CA 95122 ","1,040 sqft","$690,000",37.329517,-121.835045
723," 3210 Spring Garden St Riverside, CA 92501 ","2,285 sqft","$425,000",34.000492,-117.354065
724," 14955 Avenida Venusto #65 San Diego, CA 92128 ","1,296 sqft","$439,000",32.98934,-117.06767
725," 5019 Yellowstone Park Dr Fremont, CA 94538 ","1,736 sqft","$1,149,000",37.511604,-121.96978
726," 4347 Huerfano Ave San Diego, CA 92117 ","1,729 sqft","$899,000",32.821117,-117.21796
727," 715 N Vista St Los Angeles, CA 90046 ","2,346 sqft","$1,990,000",34.08413,-118.35253
728," 1520 S Burnside Ave Los Angeles, CA 90019 ","2,268 sqft","$899,000",34.045933,-118.35542
729," 2307 Titleist Ct Stockton, CA 95206 ","1,234 sqft","$305,000",37.926388,-121.31842
730," 522-524 Bowdoin St San Francisco, CA 94134 ","2,250 sqft","$1,095,000",37.728977,-122.41214
731," 8522 Visby Pl Sun Valley, CA 91352 ","2,229 sqft","$1,199,000",34.225266,-118.35714
732," 6724 Hough St Los Angeles, CA 90042 ","1,980 sqft","$888,888",34.11762,-118.17173
733," 3114 Magnolia St Oakland, CA 94608 ","1,772 sqft","$799,000",37.823227,-122.28202
734," 1593 Cherry Glen Way San Jose, CA 95125 ","4,248 sqft","$2,988,000",37.295395,-121.90817
735," Thorndale Dr Oakland, CA 94611 ","6,223 sqft","$249,000",37.846313,-122.20459
736," 401 Harrison St #21B San Francisco, CA 94105 ","1,311 sqft","$1,799,000",37.786064,-122.39217
737," 312 Sheridan Ave Piedmont, CA 94611 ","4,856 sqft","$3,495,000",37.82148,-122.22702
738," 5611 Woodlake Ave Woodland Hills, CA 91367 ","3,551 sqft","$1,375,000",34.17221,-118.6324
739," 1714 Comstock Ave Los Angeles, CA 90024 ","2,054 sqft","$1,995,000",34.059437,-118.423035
740," 692 S Casita St Anaheim, CA 92805 ","1,293 sqft","$550,000",33.832474,-117.90621
741," 21455 S Normandie Ave Torrance, CA 90501 ","2,271 sqft","$916,990",33.83291,-118.29943
742," 9983 Thistle Ave Fountain Valley, CA 92708 ","2,947 sqft","$1,100,000",33.72631,-117.95492
743," 3500 Buchanan St #100 Riverside, CA 92503 ","1,056 sqft","$39,000",33.885616,-117.49721
744," 7006 E El Paseo St Long Beach, CA 90815 ","2,092 sqft","$749,000",33.79459,-118.09632
745," 3540 Willowcrest Ave Studio City, CA 91604 ","2,544 sqft","$2,150,000",34.13451,-118.37077
746," 4619 E 4th St #2 Long Beach, CA 90814 ","1,401 sqft","$629,000",33.772255,-118.139084
747," 2312 Wellesley Ave Los Angeles, CA 90064 ","1,951 sqft","$1,570,000",34.02946,-118.452736
748," 4072 Sandton Ln San Diego, CA 92105 ","1,494 sqft","$449,999",32.75039,-117.078316
749," 1940 Dry Creek Rd San Jose, CA 95124 ","3,000 sqft","$2,699,995",37.28036,-121.92959
750," 6309 W Donner Ave Fresno, CA 93722 ","2,058 sqft","$344,736",36.7996,-119.90416
751," 921 4th Ave #10 San Diego, CA 92101 ",378 sqft,"$177,000",32.714893000000004,-117.16108
752," 2400 Webster St #1 San Francisco, CA 94115 ","1,089 sqft","$1,195,000",37.792953,-122.43279
753," 38073 Alta Dr Fremont, CA 94536 ","1,694 sqft","$1,168,000",37.540737,-122.00971
754," 8536 Kern Canyon Rd #213 Bakersfield, CA 93306 ","1,672 sqft","$59,000",35.381065,-118.91088
755," 4780 35th St #1 San Diego, CA 92116 ","1,483 sqft","$699,000",32.764988,-117.11757
756," 11 Evening Breeze #17 Irvine, CA 92603 ","1,740 sqft","$750,000",33.633854,-117.79958
757," 1846 Lemoyne St Los Angeles, CA 90026 ","1,400 sqft","$949,900",34.085873,-118.25433
758," 2205 Beech Knoll Rd Los Angeles, CA 90046 ","2,140 sqft","$1,699,000",34.111053,-118.37583
759," 943 E 52nd St #1 Los Angeles, CA 90011 ","1,473 sqft","$437,000",33.99591,-118.25912
760," 680 Harbor St #5 Venice, CA 90291 ","2,316 sqft","$1,650,000",33.98469,-118.46004
761," 58 Vernon St #201 Oakland, CA 94610 ","1,221 sqft","$985,000",37.812347,-122.25982
762," 3649 Walnut Ave Long Beach, CA 90807 ",893 sqft,"$599,000",33.82391,-118.17227
763," 932 Broderick St #2 San Francisco, CA 94115 ","1,183 sqft","$1,150,000",37.779316,-122.44018
764," 2990 Holyrood Dr Oakland, CA 94611 ","3,302 sqft","$1,985,000",37.821144,-122.19041
765," 4606 Janet Pl San Diego, CA 92115 ","2,429 sqft","$1,125,000",32.768612,-117.09461
766," 425 1st St #5406 San Francisco, CA 94105 ","1,268 sqft","$2,588,000",37.786064,-122.39217
767," 896 E Catalina Cir Fresno, CA 93730 ","2,222 sqft","$490,000",36.887768,-119.76904
768," 41 Mayfair Irvine, CA 92620 ","1,365 sqft","$709,000",33.704372,-117.74443
769," 7845 Golfcrest Dr #24 San Diego, CA 92119 ",936 sqft,"$325,000",32.817482,-117.046234
770," 12534 San Fernando Rd Sylmar, CA 91342 ","1,619 sqft","$750,000",34.29792,-118.455864
772," 9816 Sentinel Peak Pl Bakersfield, CA 93311 ","2,438 sqft","$349,800",35.3031,-119.11195
773," 5902 W Everett Ave Fresno, CA 93722 ","1,965 sqft","$345,000",36.849308,-119.89685
774," 5571 Golf St Riverside, CA 92509 ","3,012 sqft","$619,300",33.98675,-117.46539
775," 1629 Church St Oakland, CA 94621 ","1,557 sqft","$660,000",37.762794,-122.188255
776," 632 Brooks Ave Venice, CA 90291 ","3,500 sqft","$5,595,000",33.99567,-118.46774
777," 7463 Troost Ave North Hollywood, CA 91605 ","3,574 sqft","$1,125,000",34.206493,-118.386955
778," 5091 Ithaca Ave Los Angeles, CA 90032 ",972 sqft,"$399,000",34.071945,-118.17586
779," 1250 S Brookhurst St #2096 Anaheim, CA 92804 ","1,172 sqft","$314,999",33.81561,-117.95797
780," 20744 Tribune St Chatsworth, CA 91311 ","1,677 sqft","$625,000",34.266052,-118.58588
781," 2604 5th Ave #904 San Diego, CA 92103 ","3,995 sqft","$4,750,000",32.732746,-117.16059
782," 10076 Maya Linda Rd #1104 San Diego, CA 92126 ",956 sqft,"$370,000",32.9015,-117.119644
783," 1432 W 105th St Los Angeles, CA 90047 ","1,320 sqft","$429,900",33.94067,-118.30148
784," 12010 Santiam Ct Mira Loma, CA 91752 ","3,592 sqft","$645,000",33.963516,-117.5448
785," 1092 Evergreen St San Diego, CA 92106 ","1,454 sqft","$1,125,000",32.722603,-117.23421
786," 18341 Tarzana Dr Tarzana, CA 91356 ","2,016 sqft","$1,145,000",34.162464,-118.533165
787," 1410 Fedora St Los Angeles, CA 90006 ","2,600 sqft","$898,000",34.04597,-118.29739
788," 8903 Willis Ave #1 Panorama City, CA 91402 ","1,565 sqft","$377,000",34.23209,-118.4558
789," 4724 Kester Ave #401 Sherman Oaks, CA 91403 ","1,320 sqft","$649,000",34.15641,-118.4568
790," 1382 Piedra Morada Dr Pacific Palisades, CA 90272 ","6,391 sqft","$4,795,000",34.072544,-118.551285
791," 20209 Harlan Ave Carson, CA 90746 ","1,712 sqft","$599,000",33.848473,-118.24311
792," 2243 24th Ave Oakland, CA 94601 ","1,365 sqft","$500,000",37.789116,-122.22856
793," 358 S Anteros Ave Stockton, CA 95215 ","1,430 sqft","$305,000",37.959236,-121.23941
794," 984 E J St Chula Vista, CA 91910 ","1,594 sqft","$590,000",32.63067,-117.01759
795," 8332 Regents Rd #1B San Diego, CA 92122 ",687 sqft,"$349,000",32.866295,-117.22233
796," 56 Painted Sky Irvine, CA 92602 ","2,380 sqft","$1,498,000",33.735428,-117.75536
797," 18340 18340 Reseda, CA 91335 ","1,881 sqft","$549,000",34.201286,-118.540695
798," 3137 Lisa Dr Modesto, CA 95350 ","1,249 sqft","$315,000",37.684486,-121.02172
799," 5929 Caminito Chiapas San Diego, CA 92108 ","1,334 sqft","$485,000",32.78192,-117.10757
800," 2730 Nicol Ave Oakland, CA 94602 ","1,145 sqft","$575,000",37.79446,-122.21759
801," 418 Fairland Ave Modesto, CA 95357 ","3,317 sqft","$895,000",37.63333,-120.87864
802," 3316 Beswick St Los Angeles, CA 90023 ","1,784 sqft","$679,000",34.024326,-118.20501
803," 1519 N Poplar Ave Fresno, CA 93728 ","1,873 sqft","$220,284",36.76358,-119.79706
804," 4258 Lakeshore Ave Oakland, CA 94610 ","1,695 sqft","$1,050,000",37.815243,-122.23263
805," 388 E Ocean Blvd #706 Long Beach, CA 90802 ",680 sqft,"$345,000",33.766228,-118.18756
806," 767 Bryant St #202 San Francisco, CA 94107 ","1,850 sqft","$1,349,000",37.77636,-122.401566
807," 16025 Caminito Aire Puro San Diego, CA 92128 ","1,500 sqft","$725,000",33.004765,-117.06442
808," 24014 Marbella Ave Carson, CA 90745 ","1,393 sqft","$625,000",33.806755,-118.27039
809," 1721 Sirrine Dr Santa Ana, CA 92705 ","2,060 sqft","$949,998",33.776176,-117.76765
810," 550 Front St #2402 San Diego, CA 92101 ","1,045 sqft","$824,900",32.71107,-117.16515
811," 3406 Purdue Dr Bakersfield, CA 93306 ","1,590 sqft","$170,788",35.39951,-118.95527
812," 5460 White Oak Ave #E123 Encino, CA 91316 ",990 sqft,"$314,950",34.16982,-118.517296
813," 6767 Windward St San Diego, CA 92114 ","2,083 sqft","$529,000",32.69331,-117.04794
814," 1353 Caminito Arriata La Jolla, CA 92037 ","2,998 sqft","$1,849,000",32.814396,-117.250725
815," 521 N Formosa Ave Los Angeles, CA 90036 ","1,482 sqft","$1,399,000",34.080917,-118.346565
816," 131 Character Irvine, CA 92618 ","3,507 sqft","$1,484,990",33.6839,-117.7245
817," 4665 Da Vinci St San Diego, CA 92130 ","2,210 sqft","$959,000",32.943314,-117.216064
818," 5109 Ocean Front Walk Marina Del Rey, CA 90292 ","5,863 sqft","$14,999,000",33.968273,-118.457924
819," 2738 Council St Los Angeles, CA 90026 ","3,197 sqft","$1,299,000",34.071632,-118.278046
820," Castella Plan in Palomar at Pacific Highlands Ranch by Toll Brothers San Diego, CA 92130 ","6,059 sqft","$2,224,995+",32.970867,-117.1931
821," 503 Lincoln Ave Bakersfield, CA 93308 ","1,116 sqft","$159,000",35.41436,-119.03035
822," 35 Darlington Irvine, CA 92620 ","1,300 sqft","$655,000",33.729286,-117.759514
823," 1540 Oaktree Ln Stockton, CA 95209 ","3,281 sqft","$442,700",38.046715,-121.33359
824," 143 Desert Bloom Irvine, CA 92618 ","1,733 sqft","$853,800",33.69725,-117.71151
825," 1611 Hotel Cir S #A101 San Diego, CA 92108 ",974 sqft,"$399,500",32.757866,-117.17849
826," 15305 Saverne Cir Irvine, CA 92604 ","1,950 sqft","$975,000",33.687744,-117.7851
827," 5410 Beardsley Ln Stockton, CA 95219 ","2,545 sqft","$449,000",38.050896,-121.381615
828," 2904 Ridgedale St Bakersfield, CA 93306 ","1,381 sqft","$189,999",35.3799,-118.94506
829," 555 Maine Ave #214 Long Beach, CA 90802 ","1,155 sqft","$474,999",33.77352,-118.20094
830," 10497 Caminito Mayten San Diego, CA 92131 ","1,694 sqft","$539,900",32.89906,-117.10152
831," 1319 Diamond St San Diego, CA 92109 ","1,152 sqft","$1,375,000",32.801205,-117.24661
832," 3430 N Marks Ave Fresno, CA 93722 ","3,010 sqft","$329,900",36.786995,-119.843956
833," 1430 Russell Dr Long Beach, CA 90804 ",994 sqft,"$649,900",33.78506,-118.13601
834," 849 W Cambridge Ave Fresno, CA 93705 ","1,870 sqft","$280,000",36.768997,-119.82162
835," 5114 Bowden Ave San Diego, CA 92117 ","1,308 sqft","$649,000",32.82678,-117.18173
836," 54 Bridgeport Irvine, CA 92620 ","1,300 sqft","$759,000",33.7062,-117.77516
837," 1378-1380 19th Ave San Francisco, CA 94122 ","1,840 sqft","$1,199,000",37.762135,-122.476685
838," 6643 Royer Ave West Hills, CA 91307 ","1,853 sqft","$699,000",34.19107,-118.628746
839," Residence 1392 Plan in Santa Barbara at Spring Mountain Ranch by KB Home Riverside, CA 92507 ","1,392 sqft","$413,990+",34.006947,-117.303665
840," 42656 Charleston Way Fremont, CA 94538 ","1,483 sqft","$900,000",37.52219,-121.953804
841," 124 Messenger Irvine, CA 92618 ","1,646 sqft","$792,000",33.689632,-117.70417
842," 458 5th Ave San Francisco, CA 94118 ","2,347 sqft","$1,850,000",37.779915,-122.462975
843," 8601 International Ave #138 Canoga Park, CA 91304 ",900 sqft,"$296,000",34.227325,-118.59958
844," 19 Spruce Via Anaheim, CA 92801 ",800 sqft,"$69,900",33.86467,-117.91353
845," 7001 Sario Dr Bakersfield, CA 93313 ","2,325 sqft","$350,000",35.291748,-119.0651
846," Plan 1 in Vista Del Cielo by Shea Homes-Family Chula Vista, CA 91914 ","3,873 sqft","$1,479,183+",32.67607,-116.935814
847," 823 Superba Ave Venice, CA 90291 ",960 sqft,"$1,995,000",33.993954,-118.45954
848," 9744 Beachy Ave Pacoima, CA 91331 ","1,120 sqft","$510,000",34.2478,-118.437546
849," 683 E Coolidge St Long Beach, CA 90805 ","1,292 sqft","$555,000",33.874245,-118.18438
850," 5447 Soho View Ter San Diego, CA 92105 ","1,494 sqft","$429,900",32.750435,-117.07857
851," 5308 Sweetwater Trails Vdm #53 San Diego, CA 92130 ","4,225 sqft","$1,788,000",32.948673,-117.20564
852," 2547 Moonstone Dr San Diego, CA 92123 ","1,834 sqft","$599,000",32.790615,-117.12368
853," 2418 Folsom St Los Angeles, CA 90033 ","6,000 sqft","$2,399,999",34.04805,-118.20617
854," 4993 Lyng Dr San Jose, CA 95111 ","1,196 sqft","$749,888",37.27158,-121.80694
855," 24011 Hatteras St Woodland Hills, CA 91367 ","3,182 sqft","$1,149,000",34.173954,-118.64901
856," 3882 La Salle Ave Los Angeles, CA 90062 ","1,990 sqft","$599,900",34.014973,-118.30535
857," 2332 E Pico Ave Fresno, CA 93726 ","1,672 sqft","$259,000",36.8019,-119.78291
858," 2672 Ritchie St Oakland, CA 94605 ","1,008 sqft","$489,000",37.76292,-122.16958
859," 3031 W Olympic Blvd Los Angeles, CA 90006 ","4,324 sqft","$2,200,000",34.052883,-118.3012
860," 5404 Krista St Bakersfield, CA 93313 ","1,592 sqft","$265,000",35.30572,-119.04238
861," 5947 S Van Ness Ave Los Angeles, CA 90047 ","1,292 sqft","$575,000",33.98596,-118.31796
862," 221 Overbrook Irvine, CA 92620 ","1,615 sqft","$799,000",33.70643,-117.74416
863," 6702 2nd Ave Los Angeles, CA 90043 ","1,184 sqft","$449,900",33.978058,-118.31939
864," 5264 Raven Hill Point San Diego, CA 92130 ","4,442 sqft","$2,249,000",32.923542,-117.20538
865," 19825 Halsted St Chatsworth, CA 91311 ","2,098 sqft","$710,000",34.24414,-118.56581
866," Allura Residence 9 Plan in The District at Northridge by Shea Homes-Family Northridge, CA 91324 ","1,462 sqft","$619,000+",34.238754,-118.559395
867," Residence 6 Plan in Verge at Novel Park by William Lyon Homes Irvine, CA 92618 ","1,950 sqft","$786,990+",33.69346,-117.7352
868," 3702 22nd St San Francisco, CA 94114 ","2,955 sqft","$3,995,000",37.75497,-122.43025
869," 1250 E Shaw Ave #225 Fresno, CA 93710 ","1,096 sqft","$118,000",36.8121,-119.76768
870," 1183 Roberto Ln Los Angeles, CA 90077 ","4,076 sqft","$4,300,000",34.09473,-118.460236
871," 717 S Westlake Ave Los Angeles, CA 90057 ","18,510 sqft","$6,395,000",34.05545,-118.276085
872," 8409 Remmet Ave Canoga Park, CA 91304 ","1,316 sqft","$624,999",34.222477,-118.60126
873," 1968 N Curson Ave Los Angeles, CA 90046 ","2,836 sqft","$1,795,000",34.107544,-118.355194
874," 732 Lassen Ave Modesto, CA 95358 ",741 sqft,"$329,900",37.598804,-121.00305
875," 13291 Tiverton Rd San Diego, CA 92130 ","1,386 sqft","$699,000",32.957935,-117.23526
876," 2863 E Granada Ave Fresno, CA 93720 ","1,840 sqft","$349,900",36.876537,-119.7325
877," 17925 Califa St Encino, CA 91316 ",804 sqft,"$629,999",34.17851,-118.52389
878," 20663 Azalea Terrace Rd Riverside, CA 92508 ","2,726 sqft","$529,900",33.899967,-117.30074
879," 38311 Logan Dr Fremont, CA 94536 ","2,475 sqft","$1,375,000",37.5468,-122.00185
880," Residence One Plan in Dorado by Pulte Homes Long Beach, CA 90808 ","2,465 sqft","$918,990+",33.82311,-118.07303
881," 6761 Golfcrest Dr San Diego, CA 92119 ","2,547 sqft","$869,000",32.80027,-117.04022
882," 87 Tunapuna Ln Coronado, CA 92118 ","2,122 sqft","$1,395,000",32.61269,-117.13332
883," 12208 Marshfield Way Bakersfield, CA 93312 ","2,032 sqft","$400,000",35.366272,-119.137985
884," 1504 N Avenue 50 Los Angeles, CA 90042 ",807 sqft,"$695,000",34.123344,-118.20619
885," 5025 67th St San Diego, CA 92115 ","1,522 sqft","$715,000",32.76989,-117.05352
886," 1554 Masonic Ave San Francisco, CA 94117 ","1,540 sqft","$2,795,000",37.765934,-122.443756
887," 901 Bay Shore Blvd #308 San Francisco, CA 94124 ",530 sqft,"$196,842",37.73263,-122.40421
888," 6521 E El Roble St Long Beach, CA 90815 ","1,695 sqft","$869,000",33.787727,-118.10535
889," 1376 E 111th St Los Angeles, CA 90059 ","2,128 sqft","$650,000",33.934685,-118.25033
890," 1400 Broadway #1306 San Diego, CA 92101 ","1,131 sqft","$599,900",32.715977,-117.1517
891," 514 S Anaheim Blvd #8 Anaheim, CA 92805 ","1,055 sqft","$438,000",33.83033,-117.91175
892," 754 Gretchen Rd Chula Vista, CA 91910 ","2,035 sqft","$649,900",32.630783,-117.0554
893," 1350 Tea Rose Cir San Jose, CA 95131 ","1,790 sqft","$1,025,000",37.387714,-121.89408
894," 5045 Collwood Way San Diego, CA 92115 ","1,020 sqft","$359,000",32.768364,-117.087204
895," 4053 W Cortland Ave Fresno, CA 93722 ","2,815 sqft","$390,000",36.781456,-119.863716
896," 12709 Byron Ave Granada Hills, CA 91344 ","2,289 sqft","$749,900",34.301422,-118.51006
897," 19100 Wells Dr Tarzana, CA 91356 ","5,116 sqft","$1,750,000",34.163784,-118.54922
898," 116 Interstellar Irvine, CA 92618 ","5,000 sqft","$2,480,000",33.6804,-117.7064
899," 14792 Doncaster Rd Irvine, CA 92604 ","1,539 sqft","$819,000",33.69279,-117.77826
900," 1119 Sunset Vale Ave West Hollywood, CA 90069 ","1,852 sqft","$1,999,000",34.09117,-118.39396
901," 1120 Eureka St #6 San Diego, CA 92110 ",578 sqft,"$259,000",32.76673,-117.18903
902," 9520 Dalegrove Dr Beverly Hills, CA 90210 ","2,066 sqft","$2,500,000",34.11425,-118.402336
903," 3018 Castle St Los Angeles, CA 90039 ","2,674 sqft","$1,699,000",34.093403,-118.26819
904," 5656 N Briarwood Ave Fresno, CA 93711 ","2,009 sqft","$430,000",36.820263,-119.84067
905," 52 Crestwick Irvine, CA 92620 ","2,526 sqft","$1,310,000",33.71151,-117.74516
906," 7200 Greenly Dr Oakland, CA 94605 ","1,068 sqft","$649,000",37.77398,-122.16593
907," 5945 E Hamilton Ave Fresno, CA 93727 ","2,863 sqft","$430,000",36.72567,-119.68381
908," 4632 Kimberwick Cir Irvine, CA 92604 ","1,116 sqft","$775,000",33.696815,-117.78106
909," 2007 30th Ave San Francisco, CA 94116 ",100 sqft,"$1,898,000",37.749767,-122.48824
910," 4671 Hamilton St #12 San Diego, CA 92116 ",739 sqft,"$435,000",32.762405,-117.136024
911," Ballad Plan in Locan Pointe by Century Communities Fresno, CA 93737 ","1,853 sqft","$297,990+",36.779163,-119.65544
912," 1816 Bardale Ave San Pedro, CA 90731 ","1,700 sqft","$739,800",33.761497,-118.3005
913," 6192 E Zoie Dr Fresno, CA 93727 ","1,623 sqft","$316,388",36.778275,-119.67871
914," 2601 E Ocean Blvd #210 Long Beach, CA 90803 ",672 sqft,"$488,888",33.763367,-118.162025
915," 877 Francisco St #1103 Los Angeles, CA 90017 ",693 sqft,"$715,000",34.04752,-118.26398
916," 144 Quail Hollow Dr #144 San Jose, CA 95128 ","1,056 sqft","$235,000",37.29742,-121.93315
917," 4880 Reforma Rd Woodland Hills, CA 91364 ","2,616 sqft","$899,000",34.158062,-118.61641
918," 3100 6th Ave #401 San Diego, CA 92103 ","1,068 sqft","$649,000",32.737984,-117.15972
919," 6834 N Figueroa St Los Angeles, CA 90042 ",862 sqft,"$650,000",34.12692,-118.18654
920," 17113 Ralphs Ranch Rd San Diego, CA 92127 ","3,329 sqft","$999,999",33.027077,-117.112
921," 751 Hartzell St Pacific Palisades, CA 90272 ","1,231 sqft","$2,270,000",34.042652,-118.51922
922," 12 Roscoe St San Francisco, CA 94110 ",950 sqft,"$1,295,000",37.734474,-122.41899
923," 2518 60th Ave Oakland, CA 94605 ","1,348 sqft","$499,900",37.770275,-122.19027
924," 2004 S Gaffey St San Pedro, CA 90731 ","2,605 sqft","$890,000",33.72582,-118.292206
925," 16990 Suttles Dr Riverside, CA 92504 ","3,831 sqft","$790,000",33.87337,-117.37441
926," 4427 Scottsfield Dr San Jose, CA 95136 ","1,572 sqft","$1,084,000",37.26586,-121.873024
927," 17081 W Bernardo Dr #104 San Diego, CA 92127 ",955 sqft,"$339,900",33.025936,-117.08217
928," 3888 Shafter Ave Oakland, CA 94609 ","1,168 sqft","$998,000",37.827644,-122.25966
929," 12287 Osborne St #12 Pacoima, CA 91331 ","1,134 sqft","$319,500",34.26618,-118.40205
930," 1009 Patterson Rd Modesto, CA 95356 ","1,640 sqft","$775,000",37.734512,-120.98325
931," 179 27th St San Francisco, CA 94110 ","1,385 sqft","$1,295,000",37.74683,-122.42405
932," 106 Halo Irvine, CA 92618 ","2,345 sqft","$1,114,500",33.69116,-117.70509
933," 322 6th St #2 San Francisco, CA 94103 ",962 sqft,"$799,000",37.777935,-122.405396
934," 2685 Carleton Ave Los Angeles, CA 90065 ","1,403 sqft","$649,000",34.091927,-118.224976
935," 9014 Burnet Ave #104 North Hills, CA 91343 ",968 sqft,"$319,900",34.23399,-118.46264
936," 6951 Cozycroft Ave Winnetka, CA 91306 ","1,293 sqft","$749,000",34.196022,-118.581505
937," 11763 Iowa Ave #1 Los Angeles, CA 90025 ","1,935 sqft","$1,295,000",34.04075,-118.455536
938," 7321 Linares Ave Riverside, CA 92509 ","2,111 sqft","$440,000",33.976368,-117.44344
939," 8812 Cape Flattery Dr Bakersfield, CA 93312 ","1,211 sqft","$234,042",35.388072884423,-119.10005402656
940," Residence 3 Plan in Sterling Heights at The Lakes by Lennar San Diego, CA 92127 ","5,665 sqft","$1,982,900+",33.0284,-117.143
941," 4352 Mount Henry Ave San Diego, CA 92117 ","2,944 sqft","$1,099,900",32.822086,-117.19641
942," 15036 Marble Dr Sherman Oaks, CA 91403 ","2,419 sqft","$1,890,000",34.142452,-118.46142
943," 2016 Stanley Hills Dr Los Angeles, CA 90046 ",876 sqft,"$961,000",34.107506,-118.37833
944," 8641 Lake Murray Blvd #15 San Diego, CA 92119 ",973 sqft,"$280,000",32.800144,-117.01189
945," 15457 Moorpark St #1 Sherman Oaks, CA 91403 ","1,287 sqft","$535,000",34.156113,-118.4704
946," 245 7th Ave Venice, CA 90291 ","1,326 sqft","$2,175,000",34.0008,-118.4704
947," 13971 Deodar St Santa Ana, CA 92705 ","3,045 sqft","$899,000",33.760334,-117.83254
948," 1318 Holm Ave Modesto, CA 95351 ",884 sqft,"$170,000",37.613632,-120.97441
949," 1998 Broadway #1607 San Francisco, CA 94109 ","1,390 sqft","$1,795,000",37.795277,-122.42979
950," 2822 Paradise Dr Los Angeles, CA 90032 ",550 sqft,"$413,500",34.07971,-118.196785
951," 4312 Dawes St San Diego, CA 92109 ","1,174 sqft","$715,000",32.7951,-117.2494
952," 219 Maravilla Dr Riverside, CA 92507 ","1,498 sqft","$429,900",33.982468,-117.31614
953," 1328 E Fedora Ave #1330 Fresno, CA 93704 ","1,900 sqft","$274,900",36.783524,-119.79437
954," 642 Perugia Way Los Angeles, CA 90077 ","14,438 sqft","$35,500,000",34.081326,-118.449265
955," 80 Cherry Ridge Ct San Jose, CA 95136 ","1,351 sqft","$668,000",37.260483,-121.81879
956," 5057 Maplewood Ave #102 Los Angeles, CA 90004 ","1,810 sqft","$827,000",34.080578,-118.313
957," 1503 Paseo Aurora San Diego, CA 92154 ","1,197 sqft","$349,000",32.571537,-117.0383
958," 56 Crater Irvine, CA 92618 ","3,100 sqft","$1,589,990",33.676224,-117.710434
959," 817 N North Olive St Santa Ana, CA 92703 ","1,269 sqft","$640,000",33.748604,-117.905594
960," 12668 Sunrise Pl Playa Vista, CA 90094 ","3,627 sqft","$3,199,000",33.97647,-118.41433
961," 11400 Sunshine Ter Studio City, CA 91604 ","7,600 sqft","$12,999,000",34.138546,-118.37814
962," 141 Elsie St San Francisco, CA 94110 ","1,842 sqft","$1,950,000",37.74226,-122.41784
963," 3932 9th Ave #1 San Diego, CA 92103 ",535 sqft,"$329,000",32.749043,-117.15666
964," 5258 Greenwillow Ln San Diego, CA 92130 ","3,708 sqft","$1,850,000",32.934944,-117.20344
965," 200 Ford Rd #194B San Jose, CA 95138 ","1,440 sqft","$269,000",37.25288,-121.79327
966," 1366 Turk St #5D San Francisco, CA 94115 ","1,184 sqft","$998,000",37.780792,-122.43151
967," 7755 Owensmouth Ave Canoga Park, CA 91304 ","1,637 sqft","$850,000",34.211735,-118.60199
968," 2200 Arrowhead Dr Oakland, CA 94611 ","2,610 sqft","$949,900",37.836075,-122.19012
969," 280 Spear Street #4C Plan in MIRA by Tishman Speyer San Francisco, CA 94105 ",884 sqft,"$1,205,000+",37.791283,-122.39306
970," 1951 47th St #164 San Diego, CA 92102 ","1,500 sqft","$169,900",32.726406,-117.09214
971," 531 Arbramar Ave Pacific Palisades, CA 90272 ","6,950 sqft","$7,195,000",34.0432,-118.53585
972," 4823 Craner Ave North Hollywood, CA 91601 ","1,687 sqft","$799,000",34.158348,-118.369415
973," 2109 Tamy Ln Santa Ana, CA 92706 ","1,201 sqft","$625,000",33.76375,-117.88988
974," 1437 Courtyard Dr San Jose, CA 95118 ","1,396 sqft","$1,068,000",37.26199,-121.890434
975," 5117 Hawley Blvd San Diego, CA 92116 ","2,595 sqft","$1,250,000",32.771828,-117.11908
976," 7513 Olcott Ave Bakersfield, CA 93308 ","1,968 sqft","$265,000",35.42473,-119.086235
977," 7850 Lakeside Dr Riverside, CA 92509 ","1,654 sqft","$459,900",33.98216,-117.453865
978," 749 W 104th St Los Angeles, CA 90044 ","1,091 sqft","$485,000",33.94255,-118.28878
979," 535 Valley Forge Way #1 San Jose, CA 95117 ",840 sqft,"$608,000",37.297577,-121.96082
980," 1809 Rothchild Dr Modesto, CA 95355 ","2,024 sqft","$389,000",37.670345,-120.92658
981," 3226 Blanchard St Los Angeles, CA 90063 ",700 sqft,"$460,000",34.045773,-118.192604
982," 6144 Madra Ave San Diego, CA 92120 ","4,356 sqft","$1,375,000",32.790962,-117.0558
983," 4821 E Mountain View Dr San Diego, CA 92116 ",960 sqft,"$699,000",32.765705,-117.11554
984," 144 S 3rd St #105 San Jose, CA 95112 ","2,148 sqft","$1,175,000",37.33486,-121.885765
985," 4083 Porte De Palmas #105 San Diego, CA 92122 ","1,428 sqft","$755,000",32.86004,-117.22568
986," 3850 Lindsay St Riverside, CA 92509 ","3,404 sqft","$775,000",34.018223,-117.497116
987," #1401 Plan in ONE Mission Bay by CIM Group San Francisco, CA 94158 ","1,976 sqft","$3,700,000+",37.77505,-122.39064
988," 3008 Radnor Way Modesto, CA 95350 ","1,544 sqft","$339,000",37.682404,-121.022934
989," 836 W 82nd St Los Angeles, CA 90044 ","3,400 sqft","$1,049,000",33.963932,-118.28845
990," 769 Villa Teresa Way San Jose, CA 95123 ","1,776 sqft","$349,000",37.242615,-121.857475
991," 6699 W Alana Dr Fresno, CA 93722 ","2,244 sqft","$379,999",36.842587,-119.912476
992," 633 N Jackson Ave Fresno, CA 93702 ","2,880 sqft","$320,000",36.75201,-119.74789
993," 3634 Brayton Ave Long Beach, CA 90807 ","1,003 sqft","$719,000",33.823254,-118.17492
994," 2341 Gloaming Way Beverly Hills, CA 90210 ","7,741 sqft","$12,500,000",34.114887,-118.40275
995," 1637 N State St Fresno, CA 93722 ","3,167 sqft","$398,800",36.76287,-119.88684
996," 46 Chicago Way San Francisco, CA 94112 ","1,858 sqft","$939,000",37.71072,-122.42903
997," 9774 Via Roma Burbank, CA 91504 ","1,664 sqft","$610,078",34.212986,-118.34234
998," 4111 Saint Paul Pl Riverside, CA 92504 ","1,008 sqft","$389,000",33.940434,-117.42381
999," 333 Beale St #C8H San Francisco, CA 94105 ",985 sqft,"$1,475,000",37.7882,-122.39119
1000," 34370 Eucalyptus Ter Fremont, CA 94555 ","1,597 sqft","$1,199,999",37.55785,-122.05982
1001," 712 Nowita Pl Venice, CA 90291 ","2,018 sqft","$2,750,000",33.991993,-118.46141
1002," 9427 Newbridge Dr Riverside, CA 92508 ","3,615 sqft","$594,000",33.879524,-117.33603
1003," 115 Panorama Irvine, CA 92618 ","5,128 sqft","$3,790,000",33.629436,-117.75419
1004," 6761 Lionel Pl Winnetka, CA 91306 ","1,235 sqft","$476,807",34.19358,-118.586006
1005," Plan 1L in Entrada by Watt Communities Sylmar, CA 91342 ","1,553 sqft","$522,990+",34.315163,-118.422325
1006," 43361 Cedarwood Dr Fremont, CA 94538 ","1,080 sqft","$1,150,000",37.513058,-121.9607
1007," 416 S Spring St #505 Los Angeles, CA 90013 ","1,080 sqft","$789,000",34.048225,-118.248344
1008," 6106 Lederer Ave Woodland Hills, CA 91367 ","1,902 sqft","$775,000",34.18159,-118.63922
1009," 1816 Wintersong Ct San Jose, CA 95131 ","2,533 sqft","$1,588,000",37.376614,-121.87078
1010," 4905 Queen Victoria Rd Woodland Hills, CA 91364 ","3,372 sqft","$1,599,000",34.160133,-118.56399
1011," 435 S La Fayette Park Pl #110 Los Angeles, CA 90057 ","1,428 sqft","$629,000",34.064915,-118.28265
1012," 3415 Pecos Dr Bakersfield, CA 93312 ","1,602 sqft","$254,900",35.39158,-119.0995
1013," 1439 Green St #1 San Francisco, CA 94109 ","1,705 sqft","$1,895,000",37.797485,-122.422806
1014," Plan 2 in Vista Del Cielo by Shea Homes-Family Chula Vista, CA 91914 ","4,164 sqft","$1,207,530+",32.67607,-116.935814
1015," 7817 Cibola Dr Bakersfield, CA 93309 ","1,678 sqft","$269,000",35.319923,-119.089355
1016," 36685 Oak St Fremont, CA 94536 ","1,513 sqft","$1,250,000",37.56045,-122.01504
1017," 838 Halecrest Dr Chula Vista, CA 91910 ","1,288 sqft","$549,900",32.632496,-117.041374
1018," 1215 10th St Coronado, CA 92118 ",642 sqft,"$910,000",32.685246,-117.177925
1019," 16015 Valley Wood Rd Sherman Oaks, CA 91403 ","3,800 sqft","$1,785,000",34.13601,-118.48173
1020," Residence One Plan in Elderberry at Portola Springs by KB Home Irvine, CA 92618 ","2,892 sqft","$1,309,255+",33.691757,-117.70792
1021," 1030 N Kings Rd #305 West Hollywood, CA 90069 ","1,112 sqft","$1,280,000",34.08983,-118.37131
1022," 5315 Raphael St Los Angeles, CA 90042 ","1,372 sqft","$849,000",34.114586,-118.20152
1023," 2275 W 25th St #96 San Pedro, CA 90732 ","1,800 sqft","$424,900",33.72327,-118.33002
1024," 89 E Weldon Ave Fresno, CA 93704 ","2,571 sqft","$285,000",36.768665,-119.81119
1025," 1370 N Del Mar Ave Fresno, CA 93728 ","1,066 sqft","$120,000",36.760746,-119.79527
1026," 10051 Cielo Dr Beverly Hills, CA 90210 ","2,884 sqft","$4,495,000",34.09516,-118.4324
1027," 528 S Wilton Pl Los Angeles, CA 90020 ","2,838 sqft","$1,599,000",34.06442,-118.31372
1028," 664 Stanley Ave Long Beach, CA 90814 ","3,228 sqft","$1,349,000",33.77477,-118.161896
1029," 6351 Longcroft Dr Oakland, CA 94611 ","1,595 sqft","$899,000",37.823162,-122.194046
1030," 15 Ivy Gln Irvine, CA 92620 ","4,196 sqft","$2,050,000",33.722008,-117.74669
1031," 1580 Highridge St Riverside, CA 92506 ","2,073 sqft","$635,000",33.90607,-117.381714
1032," 3213 Century Dr Bakersfield, CA 93306 ","1,593 sqft","$240,000",35.407295,-118.95701
1033," 10725 N Ponderosa Dr Fresno, CA 93730 ","1,747 sqft","$375,000",36.892452,-119.76558
1034," 3204 Pomona St Bakersfield, CA 93305 ","1,475 sqft","$212,000",35.40263,-118.97372
1035," 721 Bay St San Francisco, CA 94109 ","1,916 sqft","$1,890,000",37.804817,-122.41892
1036," 285 N Santa Maria St Anaheim, CA 92801 ","2,171 sqft","$600,000",33.834362,-117.99556
1037," 151 S Villa Ave Fresno, CA 93727 ","2,822 sqft","$395,000",36.74221,-119.71317
1038," 4626 Mission Ave San Diego, CA 92116 ","1,036 sqft","$715,000",32.7615,-117.13953
1039," 1209 Calle Extrano Bakersfield, CA 93309 ","3,465 sqft","$565,000",35.343597,-119.091805
1040," 5650 Sumner Way #301 Culver City, CA 90230 ","1,126 sqft","$629,000",33.98394,-118.38303
1041," 2400 6th Ave #202 San Diego, CA 92101 ","1,485 sqft","$689,000",32.730663,-117.15969
1042," 16034 Caminito De Linda San Diego, CA 92128 ","1,523 sqft","$599,900",33.007126,-117.07776
1043," 20336 Bassett St Winnetka, CA 91306 ","1,715 sqft","$629,900",34.195435,-118.576805
1044," 819 Avenida Madera Chula Vista, CA 91910 ","1,961 sqft","$578,000",32.629,-117.05184
1045," 848 Irolo St #304 Los Angeles, CA 90005 ","1,450 sqft","$659,000",34.05646,-118.300545
1046," 226 Grand Ave #204 Long Beach, CA 90803 ","1,165 sqft","$488,000",33.76422,-118.14775
1047," 4757 Raspberry Pl San Jose, CA 95129 ","1,306 sqft","$948,000",37.316387,-121.986176
1049," 52 Conservancy Irvine, CA 92618 ","2,655 sqft","$980,000",33.706104,-117.721375
1050," 816 Opal Dr San Jose, CA 95117 ","3,041 sqft","$1,700,000",37.312855,-121.952286
1051," 14569 Benefit St #312 Sherman Oaks, CA 91403 ","1,570 sqft","$699,000",34.14957,-118.451385
1052," 6175 Gloucester St Los Angeles, CA 90022 ","1,212 sqft","$489,900",34.011112,-118.138885
1053," 7388 Valaho Ln Tujunga, CA 91042 ","1,232 sqft","$2,457,000",34.250065,-118.29395
1054," 6083 La Jolla Scenic Dr S La Jolla, CA 92037 ","4,328 sqft","$3,195,000",32.82522,-117.25271
1055," 11350 Foothill Blvd #3 Lake View Ter, CA 91342 ","1,029 sqft","$349,999",34.275806,-118.37826
1056," 6024 Fairhope Pl San Jose, CA 95123 ","1,328 sqft","$850,000",37.23973,-121.86597
1057," 1551 Crater Ln Los Angeles, CA 90077 ","1,774 sqft","$1,099,000",34.099422,-118.44386
1058," 22801 Mariano St Woodland Hills, CA 91367 ","1,556 sqft","$765,000",34.16846,-118.623695
1059," 9712 Cobble Creek Dr Bakersfield, CA 93314 ","1,880 sqft","$274,300",35.447773,-119.11108
1060," 2264 Beverly Glen Pl Los Angeles, CA 90077 ","1,933 sqft","$2,650,000",34.111595,-118.44707
1061," 1254 W Monterey Ave Stockton, CA 95204 ","1,861 sqft","$359,000",37.972668,-121.31568
1062," 23312 Western Ave #C Harbor City, CA 90710 ","1,075 sqft","$435,000",33.813526,-118.30817
1063," 4041 Pedley Rd Riverside, CA 92509 ","1,248 sqft","$79,999",34.01428,-117.47628
1064," 1048 S Orange Dr Los Angeles, CA 90019 ","5,600 sqft","$2,100,000",34.055546,-118.343636
1065," 405 E Brown Ave Fresno, CA 93704 ","1,747 sqft","$370,000",36.77516,-119.80735
1066," 228 Borrego Dr Irvine, CA 92618 ","1,652 sqft","$738,000",33.697357,-117.71365
1067," 14027 Wyandotte St Van Nuys, CA 91405 ","2,104 sqft","$714,000",34.203274,-118.43872
1068," 6827 W Yale Ave Fresno, CA 93723 ","1,344 sqft","$159,900",36.76892,-119.91373
1069," 8262 Plainview St Riverside, CA 92508 ","2,547 sqft","$485,160",33.901207,-117.32283
1070," 1358 Oakland Rd #47 San Jose, CA 95112 ","1,344 sqft","$245,000",37.372757,-121.89138
